City_ID,City,Lat,Lng,Max Temp,Humidity,Cloudiness,Wind Speed,Country,Date
0,port-aux-francais,-49.35,70.2167,1.4,84,78,9.54,TF,1722895778
1,thunder bay,48.4001,-89.3168,23.99,38,100,4.12,CA,1722895249
2,murzuq,25.9155,13.9184,32.09,13,0,5.11,LY,1722895780
3,papao,-17.75,-149.55,28.82,74,7,6.31,PF,1722895782
4,bredasdorp,-34.5322,20.0403,7.84,84,0,3.34,ZA,1722895783
5,adamstown,-25.066,-130.1015,19.35,68,60,5.32,PN,1722895784
6,la'ie,21.6477,-157.9253,30.0,72,91,3.58,US,1722895785
7,palikir - national government center,6.9248,158.1611,31.41,70,100,3.09,FM,1722895786
8,olyokminsk,60.3736,120.4264,13.38,91,55,1.12,RU,1722895787
9,tabina,7.4669,123.4081,26.43,83,81,0.99,PH,1722895788
10,riosucio,5.4216,-75.7032,15.29,94,85,1.59,CO,1722895789
11,edinburgh of the seven seas,-37.0676,-12.3116,13.48,95,96,10.1,SH,1722895790
12,blackmans bay,-43.0167,147.3167,10.41,72,100,0.45,AU,1722895791
13,port moresby,-9.4431,147.1797,24.78,80,97,3.08,PG,1722895792
14,invercargill,-46.4,168.35,8.9,77,71,3.13,NZ,1722895723
15,meizhou,24.2977,116.1072,25.27,96,53,0.23,CN,1722895794
16,ushuaia,-54.8,-68.3,-6.06,92,76,1.5,AR,1722895795
17,coquimbo,-29.9533,-71.3436,13.85,58,0,4.12,CL,1722895796
18,yellowknife,62.456,-114.3525,22.45,43,75,1.79,CA,1722895515
19,jamestown,42.097,-79.2353,24.29,95,100,3.09,US,1722895799
20,nantucket,41.2835,-70.0995,26.72,85,5,7.17,US,1722895670
21,vorgashor,67.5833,63.95,4.64,76,8,2.58,RU,1722895801
22,beidaihehaibin,39.8222,119.5181,24.58,87,6,1.87,CN,1722895802
23,cidreira,-30.1811,-50.2056,15.72,98,92,4.0,BR,1722895803
24,waitangi,-43.9535,-176.5597,9.34,94,68,0.45,NZ,1722895804
25,vila franca do campo,37.7167,-25.4333,24.23,89,39,2.41,PT,1722895805
26,stanley,54.868,-1.6985,20.16,83,40,4.63,GB,1722895527
27,palmas,-10.2128,-48.3603,28.93,32,0,2.06,BR,1722895381
28,port elizabeth,-33.918,25.5701,11.29,67,0,3.13,ZA,1722895808
29,codrington,-38.2667,141.9667,6.25,96,89,5.76,AU,1722895809
30,bria,6.5423,21.9863,21.11,95,76,1.81,CF,1722895810
31,sur,22.5667,59.5289,27.44,74,100,2.86,OM,1722895811
32,puerto natales,-51.7236,-72.4875,-0.75,86,75,1.54,CL,1722895812
33,longyearbyen,78.2186,15.6401,7.91,93,40,4.63,SJ,1722895813
34,kalmunai,7.4167,81.8167,27.33,81,99,1.43,LK,1722895814
35,college,64.8569,-147.8028,29.14,40,20,3.09,US,1722895816
36,afaahiti,-17.75,-149.2833,27.93,78,57,6.52,PF,1722895817
37,puerto ayora,-0.7393,-90.3518,23.98,80,60,4.57,EC,1722895818
38,ilulissat,69.2167,-51.1,9.01,76,20,2.06,GL,1722895819
39,newman,37.3138,-121.0208,38.19,10,0,1.55,US,1722895820
40,carnarvon,-24.8667,113.6333,16.39,64,0,2.46,AU,1722895821
41,bethel,41.3712,-73.414,30.02,70,0,3.09,US,1722895822
42,andergrove,-21.0833,149.1833,19.25,87,32,2.66,AU,1722895823
43,isla vista,34.4133,-119.861,37.97,37,76,2.46,US,1722895824
44,port mathurin,-19.6833,63.4167,22.4,77,13,7.53,MU,1722895825
45,grytviken,-54.2811,-36.5092,-9.49,77,100,5.51,GS,1722895826
46,calvinia,-31.4707,19.776,6.33,54,0,1.59,ZA,1722895827
47,prince rupert,54.3161,-130.3201,16.05,88,40,2.57,CA,1722895828
48,qamdo,31.1667,97.2333,6.36,62,15,0.51,CN,1722895829
49,sarospatak,48.3167,21.5833,15.84,89,98,1.76,HU,1722895830
50,mountain home,43.133,-115.6912,37.23,18,4,2.24,US,1722895831
51,fort st. john,56.2499,-120.8529,16.19,78,95,2.87,CA,1722895833
52,dwarka,22.2394,68.9678,27.56,87,100,9.53,IN,1722895834
53,cururupu,-1.8283,-44.8683,24.22,83,81,1.44,BR,1722895633
54,whitehorse,60.7161,-135.0538,26.17,32,20,4.63,CA,1722895584
55,mawlaik,23.6333,94.4167,23.48,100,100,0.4,MM,1722895837
56,sidney,-33.8679,151.2073,12.02,76,40,3.6,AU,1722895751
57,tofol,5.3248,163.0078,26.88,89,75,1.03,FM,1722895839
58,iringal,11.5593,75.611,25.25,87,100,1.85,IN,1722895840
59,san luis de la loma,17.2706,-100.8939,29.46,75,100,2.9,MX,1722895841
60,dudinka,69.4058,86.1778,7.2,71,61,8.18,RU,1722895842
61,avarua,-21.2078,-159.775,26.03,78,75,5.66,CK,1722895843
62,hawaiian paradise park,19.5933,-154.9731,27.73,73,0,2.57,US,1722895844
63,saldanha,-33.0117,17.9442,10.88,83,1,3.9,ZA,1722895845
64,ancud,-41.8697,-73.8203,8.0,92,100,9.25,CL,1722895846
65,ust'-kut,56.7938,105.7672,13.02,82,7,0.37,RU,1722895847
66,praia da vitoria,38.7333,-27.0667,25.42,93,66,2.21,PT,1722895849
67,truth or consequences,33.1284,-107.2528,36.62,27,0,3.6,US,1722895850
68,robore,-18.3333,-59.75,30.78,27,30,1.84,BO,1722895851
69,tlaltenango de sanchez roman,21.7833,-103.3167,28.22,28,3,2.03,MX,1722895852
70,malpica,43.3228,-8.8105,20.68,63,49,1.75,ES,1722895853
71,kalamata,37.0389,22.1142,24.87,73,0,2.06,GR,1722895854
72,ebon,4.582,168.6964,28.56,73,17,4.93,MH,1722895855
73,kodinsk,58.6881,99.1844,13.36,82,9,1.52,RU,1722895856
74,aripuana,-9.1667,-60.6333,29.09,32,4,0.9,BR,1722895857
75,tiksi,71.6872,128.8694,12.93,73,100,3.7,RU,1722895858
76,isafjordur,66.0755,-23.124,6.74,96,100,10.33,IS,1722895859
77,san julian,21.0167,-102.1667,25.28,33,4,0.7,MX,1722895860
78,zeya,53.75,127.2667,17.75,97,97,1.14,RU,1722895861
79,ruteng,-8.6136,120.4721,15.54,87,45,1.35,ID,1722895862
80,albany,42.6001,-73.9662,28.71,72,81,3.7,US,1722895863
81,pionerskiy,54.9508,20.2275,18.91,82,16,5.65,RU,1722895865
82,beberibe,-4.1797,-38.1306,25.96,77,91,6.85,BR,1722895866
83,wuhai,39.6647,106.8122,25.58,48,100,7.13,CN,1722895867
84,hamilton,39.1834,-84.5333,34.49,51,20,3.09,US,1722895851
85,sisimiut,66.9395,-53.6735,6.61,79,74,1.46,GL,1722895869
86,sadovoye,47.7764,44.5089,22.22,77,35,3.38,RU,1722895870
87,miranda,3.2499,-76.2281,26.07,83,94,0.56,CO,1722895871
88,olonkinbyen,70.9221,-8.7187,6.38,95,100,2.7,SJ,1722895872
89,ariguani,10.25,-74.0,31.77,56,100,3.68,CO,1722895873
90,iqaluit,63.7506,-68.5145,8.72,66,100,4.02,CA,1722895874
91,badger,64.8,-147.5333,29.09,38,20,3.09,US,1722895875
92,mount gambier,-37.8333,140.7667,5.91,100,92,3.03,AU,1722895876
93,jayapura,-2.5333,140.7,25.66,90,90,1.9,ID,1722895564
94,thompson,55.7435,-97.8558,24.39,27,7,1.95,CA,1722895878
95,mega,4.05,38.3,19.07,57,100,3.28,ET,1722895879
96,la sarre,48.8002,-79.1996,19.47,49,73,3.72,CA,1722895610
97,papatowai,-46.5619,169.4708,8.42,68,27,3.95,NZ,1722895882
98,port lincoln,-34.7333,135.8667,9.45,90,99,4.39,AU,1722895883
99,oodweyne,9.4092,45.064,24.49,57,100,5.12,SO,1722895884
100,tolanaro,-25.0319,46.9987,19.13,77,3,2.79,MG,1722895885
101,ishigaki,24.3448,124.1572,28.54,80,100,5.88,JP,1722895886
102,ocean shores,46.9737,-124.1563,19.97,75,100,5.14,US,1722895887
103,utrik,11.2278,169.8474,28.11,81,97,6.67,MH,1722895888
104,tete,-16.1564,33.5867,21.64,28,9,0.89,MZ,1722895889
105,champerico,14.3,-91.9167,29.3,71,81,2.66,GT,1722895890
106,atafu village,-8.5421,-172.5159,28.19,74,71,2.76,TK,1722895760
107,santa cruz,-17.8,-63.1667,22.7,94,75,3.6,BO,1722895801
108,ponta delgada,37.7333,-25.6667,24.4,88,40,3.09,PT,1722895893
109,uturoa,-16.7333,-151.4333,25.81,76,51,7.05,PF,1722895894
110,bhinmal,25.0,72.25,25.09,95,100,3.92,IN,1722895895
111,vyazemskiy,47.5378,134.7525,23.67,89,36,2.45,RU,1722895896
112,axim,4.8699,-2.2405,23.51,87,100,3.06,GH,1722895898
113,santa elena de uairen,4.6167,-61.1333,21.64,79,81,2.05,VE,1722895899
114,gutierrez zamora,20.45,-97.0833,32.9,65,24,4.19,MX,1722895900
115,punta arenas,-53.15,-70.9167,-0.94,86,20,3.09,CL,1722895896
116,bilibino,68.0546,166.4372,3.72,61,92,1.14,RU,1722895902
117,carupano,10.6678,-63.2585,26.63,81,86,3.34,VE,1722895903
118,georgetown,5.4112,100.3354,27.96,78,40,3.13,MY,1722895590
119,rio guayabal de yateras,20.3667,-75.0167,27.89,79,99,1.04,CU,1722895905
120,petropavlovsk-kamchatsky,53.0452,158.6483,13.33,100,100,2.0,RU,1722895720
121,keren,15.7778,38.4581,19.61,93,99,1.71,ER,1722895907
122,burang,30.25,81.1667,10.06,79,96,1.83,CN,1722895908
123,holualoa,19.6228,-155.9522,26.91,79,40,4.12,US,1722895909
124,howard springs,-12.497,131.047,22.95,88,24,2.27,AU,1722895910
125,ulladulla,-35.35,150.4667,9.24,77,6,2.62,AU,1722895911
126,baharly,38.4362,57.4316,30.84,21,0,2.37,TM,1722895913
127,nagqu,31.5,92.0,3.53,81,5,0.95,CN,1722895914
128,puerto baquerizo moreno,-0.9,-89.6,22.55,78,75,4.63,EC,1722895915
129,puerto armuelles,8.2833,-82.8667,25.05,78,80,3.58,PA,1722895916
130,remire-montjoly,4.9167,-52.2667,29.02,74,0,3.09,GF,1722895826
131,san patricio,28.017,-97.5169,34.4,45,51,6.15,US,1722895918
132,kodiak,57.79,-152.4072,12.73,100,100,10.8,US,1722895919
133,margaret river,-33.95,115.0667,16.13,87,100,8.63,AU,1722895920
134,alofi,-19.0595,-169.9187,22.94,88,75,4.63,NU,1722895921
135,alice springs,-23.7,133.8833,1.75,100,0,2.57,AU,1722895671
136,magadan,59.5667,150.8,13.57,78,100,2.96,RU,1722895923
137,vettaikkaranpudur,10.5667,76.9333,23.38,92,100,3.19,IN,1722895924
138,ola,59.5833,151.2833,13.73,78,100,2.51,RU,1722895926
139,north bend,43.4065,-124.2243,23.29,68,0,8.75,US,1722895928
140,itamaraca,-7.7478,-34.8256,26.03,79,22,4.67,BR,1722895929
141,kapa'a,22.0752,-159.319,29.18,66,20,5.14,US,1722895930
142,nema,57.5067,50.5011,14.26,95,56,1.24,RU,1722895931
143,kidal,18.4411,1.4078,29.86,43,76,4.95,ML,1722895932
144,inhambane,-23.865,35.3833,21.14,73,58,6.86,MZ,1722895933
145,amuntai,-2.4177,115.2494,23.27,88,100,0.52,ID,1722895693
146,yeniseysk,58.4497,92.1703,14.95,98,32,0.64,RU,1722895935
147,santa ana,33.7456,-117.8678,41.59,39,40,4.63,US,1722895655
148,lerwick,60.1545,-1.1494,13.0,93,98,0.31,GB,1722895937
149,tarauaca,-8.1614,-70.7656,24.97,77,92,1.4,BR,1722895678
150,belmonte,-15.8631,-38.8828,22.78,69,44,2.69,BR,1722895939
151,sheldon,43.1811,-95.8561,31.68,66,0,6.17,US,1722895940
152,padangsidempuan,1.3667,99.2667,21.63,98,92,0.78,ID,1722895941
153,sol'tsy,58.1239,30.3238,14.66,94,75,0.91,RU,1722895943
154,bikenibeu village,1.3673,173.1241,29.1,64,84,5.05,KI,1722895944
155,kerikeri,-35.2268,173.9474,14.39,85,30,2.68,NZ,1722895945
156,cabo san lucas,22.8909,-109.9124,34.61,56,0,4.12,MX,1722895722
157,kasese,0.1833,30.0833,21.05,77,21,1.49,UG,1722895947
158,portland,45.5234,-122.6762,31.76,38,0,1.34,US,1722895347
159,haiku-pauwela,20.9219,-156.3051,30.12,66,40,12.86,US,1722895949
160,polyarnyy,69.1989,33.4478,8.86,77,3,1.77,RU,1722895950
161,ariquemes,-9.9133,-63.0408,31.16,33,2,1.42,BR,1722895952
162,beitbridge,-22.2167,30.0,17.53,76,0,9.15,ZW,1722895953
163,lamu,-2.2717,40.902,23.81,78,21,6.88,KE,1722895954
164,kapuskasing,49.4169,-82.4331,20.42,37,96,4.21,CA,1722895955
165,sitka,57.0531,-135.33,20.94,64,20,1.54,US,1722895956
166,necochea,-38.5473,-58.7368,10.98,79,100,5.17,AR,1722895735
167,kingston,17.997,-76.7936,31.2,73,19,2.01,JM,1722895731
168,klyuchi,52.2667,79.1667,18.95,65,58,2.82,RU,1722895960
169,sault ste. marie,46.5168,-84.3333,22.16,46,0,4.12,CA,1722895803
170,tselinnoye,53.0833,85.6667,14.35,93,64,2.53,RU,1722895962
171,caorle,45.5966,12.8758,25.23,63,18,1.87,IT,1722895963
172,toropets,56.4978,31.6353,13.81,92,9,0.72,RU,1722895964
173,revda,56.801,59.9303,14.01,98,95,2.95,RU,1722895965
174,mount pearl,47.5166,-52.7813,21.29,92,100,2.68,CA,1722895949
175,saurimo,-9.6608,20.3916,19.02,25,0,1.14,AO,1722895967
176,guerrero negro,27.9769,-114.0611,27.0,54,99,6.82,MX,1722895718
177,maun,-19.9833,23.4167,15.91,24,0,3.32,BW,1722895969
178,mafra,-26.1114,-49.8053,17.65,75,18,0.55,BR,1722895970
179,roma,43.2128,-75.4557,27.6,74,40,4.12,US,1722895868
180,igarka,67.4667,86.5833,7.09,77,99,4.74,RU,1722895972
181,brookings,44.3114,-96.7984,18.0,94,100,10.8,US,1722895948
182,porto novo,6.4965,2.6036,24.56,83,99,4.93,BJ,1722895975
183,ust-nera,64.5667,143.2,15.7,52,100,2.13,RU,1722895976
184,castro,-24.7911,-50.0119,18.61,57,5,2.16,BR,1722895977
185,ataq,14.5377,46.8319,24.97,58,72,4.37,YE,1722895978
186,sittwe,20.15,92.9,25.79,90,100,3.85,MM,1722895979
187,sola,-13.8833,167.55,24.93,65,75,10.36,VU,1722895980
188,al ghayzah,16.2079,52.176,24.74,91,80,3.17,YE,1722895981
189,san rafael,-34.6177,-68.3301,15.4,25,55,7.89,AR,1722895911
190,yomju-up,39.8933,124.5981,23.4,98,100,2.16,KP,1722895983
191,shahecheng,36.9383,114.5058,25.67,91,18,0.59,CN,1722895984
192,moree,-29.4667,149.85,10.73,95,28,3.13,AU,1722895985
193,puerto real,36.5282,-6.1901,25.9,88,0,3.09,ES,1722895986
194,lengshuitan,26.4111,111.5956,25.74,88,100,2.16,CN,1722895987
195,ciudad lazaro cardenas,17.9583,-102.2,29.09,73,100,3.14,MX,1722895722
196,kargat,55.1956,80.2811,13.54,92,17,3.04,RU,1722895840
197,chos malal,-37.3781,-70.2709,7.04,69,16,3.2,AR,1722895990
198,nar'yan-mar,67.6713,53.087,4.78,87,6,4.39,RU,1722895706
199,conception bay south,47.4999,-52.9981,21.62,98,100,5.56,CA,1722895993
200,margate,51.3813,1.3862,17.95,79,1,4.45,GB,1722895403
201,mugia,43.1041,-9.2179,21.2,95,54,0.89,ES,1722895995
202,vadso,70.0744,29.7487,10.49,93,75,4.63,NO,1722895931
203,amfissa,38.525,22.3731,25.96,61,0,1.56,GR,1722895997
204,jequitinhonha,-16.4339,-41.0033,20.92,70,98,1.32,BR,1722895998
205,tukrah,32.5341,20.5791,27.39,72,0,3.86,LY,1722895754
206,lompoc,34.6391,-120.4579,25.32,68,0,5.66,US,1722896000
207,bamyan,34.75,67.25,10.68,45,0,2.39,AF,1722896001
208,ribeira grande,38.5167,-28.7,25.22,88,40,5.14,PT,1722896002
209,port-vila,-17.7338,168.3219,21.78,78,100,4.12,VU,1722896003
210,glace bay,46.1969,-59.957,26.7,74,99,4.16,CA,1722896004
211,diamantino,-14.4086,-56.4461,26.7,24,0,2.95,BR,1722896005
212,roccella ionica,38.322,16.4009,26.2,73,1,2.62,IT,1722896006
213,niort,46.3333,-0.3333,17.42,88,0,2.62,FR,1722896007
214,torbat-e heydariyeh,35.274,59.2195,25.13,23,0,5.0,IR,1722896008
215,usogorsk,63.4106,48.6872,12.46,96,98,2.13,RU,1722896010
216,freetown,8.484,-13.2299,25.1,86,95,4.39,SL,1722896011
217,hithadhoo,-0.6,73.0833,28.24,74,100,0.88,MV,1722896012
218,lagoa,39.05,-27.9833,23.81,85,23,6.23,PT,1722896013
219,severnyy,50.677,36.5532,18.02,77,0,2.0,RU,1722896014
220,megion,61.0296,76.1136,16.01,92,100,3.76,RU,1722896015
221,colonia,50.9333,6.95,20.53,81,0,2.06,DE,1722895788
222,tralee,52.2704,-9.7026,11.15,93,0,2.32,IE,1722896017
223,yuzhno-kurilsk,44.0306,145.8556,16.16,99,100,2.92,RU,1722896018
224,akureyri,65.6835,-18.0878,9.96,93,100,3.09,IS,1722896019
225,talnakh,69.4865,88.3972,8.49,69,38,1.38,RU,1722896020
226,young,-32.6833,-57.6333,17.1,91,99,4.68,UY,1722896021
227,enewetak,11.3474,162.3373,28.83,72,88,2.47,MH,1722896022
228,vilyuchinsk,52.9306,158.4028,14.15,78,100,0.71,RU,1722896023
229,el granada,37.5027,-122.4694,26.19,66,20,7.72,US,1722896024
230,toliara,-23.35,43.6667,19.52,83,0,2.83,MG,1722896025
231,puerto lempira,15.2667,-83.7667,31.08,66,40,4.12,HN,1722896027
232,saipan,15.1355,145.701,30.39,79,0,3.6,MP,1722896028
233,aginskoye,51.1,114.53,16.87,63,80,2.17,RU,1722896029
234,hermanus,-34.4187,19.2345,9.89,78,4,5.52,ZA,1722895854
235,nova sintra,14.8667,-24.7167,26.7,81,49,2.34,CV,1722896031
236,quatre cocos,-20.2078,57.7625,17.06,80,35,2.9,MU,1722896032
237,pacocha,-17.5833,-71.3333,15.81,86,27,2.75,PE,1722896033
238,chernyshevskiy,63.0128,112.4714,14.61,79,97,1.38,RU,1722896034
239,pacific grove,36.6177,-121.9166,25.86,85,100,4.63,US,1722896035
240,selfoss,63.9331,-20.9971,10.58,98,100,2.97,IS,1722895986
241,west island,-12.1568,96.8225,24.99,78,23,4.12,CC,1722896037
242,dobryanka,58.4619,56.4165,14.02,98,93,1.18,RU,1722896038
243,flin flon,54.7682,-101.865,23.69,29,100,2.99,CA,1722895759
244,opuwo,-18.0607,13.84,17.87,30,0,1.82,NA,1722896040
245,port augusta,-32.5,137.7667,7.43,80,24,1.55,AU,1722896041
246,touros,-5.1989,-35.4608,24.08,77,46,6.77,BR,1722896042
247,vanimo,-2.6741,141.3028,25.95,83,100,1.94,PG,1722896043
248,rongelap,11.1635,166.8941,28.4,77,100,6.47,MH,1722895824
249,itupiranga,-5.1347,-49.3267,28.18,35,1,0.65,BR,1722896046
250,port alfred,-33.5906,26.891,13.48,62,0,3.91,ZA,1722896047
251,les avirons,-21.2418,55.3394,17.05,55,0,2.57,RE,1722896048
252,dunedin,-45.8742,170.5036,8.78,76,19,1.99,NZ,1722896049
253,oranjemund,-28.55,16.4333,11.67,76,0,5.47,NA,1722896050
254,iskateley,67.6803,53.1512,4.75,87,6,4.36,RU,1722896051
255,bishkul,54.7803,69.1033,17.24,88,100,3.25,KZ,1722896052
256,aasiaat,68.7098,-52.8699,4.28,88,61,1.84,GL,1722896053
257,chonchi,-42.6128,-73.8092,8.56,99,100,0.38,CL,1722895961
258,sumbawa besar,-8.5,117.4333,20.1,89,100,2.01,ID,1722896055
259,adh dhibiyah,24.5014,45.9686,30.29,14,56,2.59,SA,1722896056
260,sandnessjoen,66.0217,12.6316,16.29,68,88,4.75,NO,1722896057
261,rio claro,-22.4114,-47.5614,22.31,36,0,0.92,BR,1722895756
262,arraial do cabo,-22.9661,-42.0278,22.98,83,0,7.2,BR,1722896059
263,heihe,50.2441,127.4902,19.32,76,1,0.69,CN,1722896061
264,zhigalovo,54.8097,105.1578,12.25,88,3,0.52,RU,1722896062
265,sabang,5.8933,95.3214,28.69,74,73,7.43,ID,1722896063
266,norfolk,42.1668,-71.2495,30.99,65,46,0.89,US,1722896064
267,celestun,20.8667,-90.4,30.23,70,90,4.94,MX,1722896065
268,clacton-on-sea,51.7897,1.156,19.88,75,5,5.85,GB,1722896067
269,leland,34.2563,-78.0447,26.14,89,100,2.06,US,1722895946
270,hadibu,12.65,54.0333,25.41,81,37,8.96,YE,1722896069
271,nemuro,43.3236,145.575,17.22,98,86,2.61,JP,1722896071
272,gramoteino,54.5368,86.3839,14.1,93,100,2.75,RU,1722896072
273,kone,-21.0595,164.8658,20.99,54,5,1.48,NC,1722896073
274,smithers,54.7804,-127.1743,24.18,31,40,1.54,CA,1722896074
275,pisco,-13.7,-76.2167,19.03,72,0,2.57,PE,1722896075
276,korla,41.7597,86.1469,28.54,34,90,2.05,CN,1722896076
277,constantia,44.1833,28.65,20.39,63,45,5.06,RO,1722895843
278,sarkand,45.41,79.9186,22.7,29,69,3.19,KZ,1722896079
279,iguape,-24.7081,-47.5553,18.65,95,14,3.31,BR,1722895835
280,kirakira,-10.4544,161.9205,26.26,85,100,4.68,SB,1722896081
281,mejit,10.2753,170.8646,28.31,80,100,6.14,MH,1722896082
282,yaren,-0.5472,166.916,28.66,70,14,4.38,NR,1722896084
283,mitu,1.1983,-70.1733,24.69,96,100,0.66,CO,1722895833
284,el calafate,-50.3408,-72.2768,-0.63,89,90,1.23,AR,1722896086
285,agudos,-22.4692,-48.9875,29.14,33,0,0.0,BR,1722896087
286,kosh-agach,50.0,88.6667,10.09,73,68,0.5,RU,1722896088
287,qaqortoq,60.7167,-46.0333,8.58,78,100,1.46,GL,1722896089
288,corning,42.1428,-77.0547,26.23,78,0,0.0,US,1722895801
289,labrador city,52.9463,-66.9114,11.95,71,100,4.63,CA,1722896091
290,mossel bay,-34.1831,22.146,7.96,62,0,2.81,ZA,1722896093
291,fonte boa,-2.4959,-66.2662,28.47,70,100,0.73,BR,1722896094
292,egilsstadir,65.2653,-14.3948,8.95,93,40,2.57,IS,1722896095
293,vilyuysk,63.7553,121.6247,14.82,69,35,2.24,RU,1722896096
294,namtsy,62.7161,129.6658,12.69,87,100,3.7,RU,1722896097
295,soria,41.6667,-2.6667,22.28,54,22,2.52,ES,1722896098
296,ellsworth,44.5434,-68.4195,25.3,62,0,2.57,US,1722895947
297,riberalta,-10.9833,-66.1,33.11,55,20,4.63,BO,1722896100
298,chipinge,-20.1883,32.6236,14.09,53,0,3.38,ZW,1722896101
299,barra de santo antonio,-9.4047,-35.5072,22.6,76,20,5.52,BR,1722896102
300,callaway,30.153,-85.5699,33.28,63,100,4.92,US,1722896103
301,impfondo,1.6381,18.0667,23.96,71,95,1.04,CG,1722896104
302,kuyucak,37.9133,28.4592,26.04,45,2,2.5,TR,1722896105
303,kindu,-2.95,25.95,23.63,42,86,0.44,CD,1722896106
304,zapata,26.9073,-99.2714,37.06,34,75,4.12,US,1722896108
305,kresttsy,58.2452,32.5165,15.04,83,76,1.53,RU,1722896109
306,borsa,47.6553,24.6633,14.44,99,100,1.69,RO,1722896110
307,gusau,12.1628,6.6614,24.23,85,100,3.5,NG,1722896111
308,kuta,-8.7233,115.1723,25.97,83,20,5.66,ID,1722896112
309,uzgen,40.7699,73.3007,23.16,34,13,2.74,KG,1722896113
310,sasovo,54.3537,41.9199,19.74,59,100,2.48,RU,1722896114
311,lebu,-37.6167,-73.65,8.29,84,46,3.97,CL,1722895886
312,belgrade,44.804,20.4651,23.81,60,0,4.63,RS,1722895265
313,gandajika,-6.75,23.95,24.95,23,35,1.39,CD,1722896117
314,broome,42.2506,-75.833,23.53,87,100,2.57,US,1722896118
315,umm kaddadah,13.6017,26.6876,29.16,52,94,3.44,SD,1722896119
316,sancti spiritus,21.9297,-79.4425,29.91,78,98,3.0,CU,1722896120
317,la passe,45.5549,-0.8967,22.13,90,0,4.03,FR,1722896121
318,mantua,45.1667,10.7833,26.72,81,36,0.89,IT,1722896122
319,balikpapan,-1.2675,116.8289,23.56,95,98,1.81,ID,1722896123
320,pampierstad,-27.7832,24.6877,5.09,51,0,1.89,ZA,1722896125
321,puerto aysen,-45.4,-72.7,2.42,99,100,1.57,CL,1722896126
322,revelstoke,50.9832,-118.2023,27.01,50,75,4.12,CA,1722896127
323,monterey,36.2505,-121.2516,36.77,13,21,5.07,US,1722896129
324,udachny,66.4167,112.4,9.31,84,98,8.48,RU,1722896130
325,kargasok,59.0556,80.8572,14.76,95,49,2.7,RU,1722896131
326,khodzha-maston,38.7446,68.627,19.68,29,1,3.52,TJ,1722896132
327,mili,6.0815,171.735,27.8,78,52,4.27,MH,1722896115
328,greymouth,-42.4667,171.2,8.4,83,10,1.58,NZ,1722896107
329,khash,28.2211,61.2158,26.67,46,36,1.97,IR,1722896136
330,san antonio de pale,-1.4014,5.6325,22.19,74,100,4.55,GQ,1722896137
331,piranshahr,36.701,45.1413,21.2,32,0,0.9,IR,1722896138
332,ubinskoye,55.3068,79.6802,13.56,92,13,3.11,RU,1722896139
333,saint-pierre,-21.3393,55.4781,18.82,55,0,2.57,RE,1722896140
334,polyany,54.7122,39.8231,18.49,69,100,2.16,RU,1722896141
335,wailua homesteads,22.0669,-159.378,28.44,70,20,5.14,US,1722896142
336,dean funes,-30.4204,-64.3498,15.32,54,0,3.06,AR,1722896143
337,keflavik,64.0049,-22.5624,10.95,100,75,3.6,IS,1722896134
338,as sulayyil,20.4607,45.5779,36.14,16,100,1.66,SA,1722896145
339,valenca,-13.3703,-39.0731,19.58,87,0,1.37,BR,1722896146
340,rosenfeld,48.2864,8.7236,18.18,82,12,0.91,DE,1722896147
341,tarazona de la mancha,39.2123,-1.9491,27.27,37,21,4.47,ES,1722896148
342,new norfolk,-42.7826,147.0587,11.07,90,100,2.42,AU,1722896149
343,happy valley-goose bay,53.3168,-60.3315,24.17,35,20,5.14,CA,1722896150
344,gebeit,21.0667,36.3167,26.42,61,95,2.57,SD,1722896152
345,noumea,-22.2763,166.4572,21.11,99,60,5.1,NC,1722896153
346,curaca,-8.9903,-39.9094,26.65,46,26,10.81,BR,1722896154
347,yanbu,24.0891,38.0637,34.02,62,40,3.09,SA,1722896157
348,humaita,-7.5061,-63.0208,31.93,29,5,1.18,BR,1722896159
349,kyzylorda,44.8528,65.5092,22.01,53,0,3.0,KZ,1722896160
350,kodinar,20.7903,70.7031,27.27,85,100,7.74,IN,1722896162
351,tsiombe,-25.3,45.4833,17.72,94,4,0.89,MG,1722895942
352,verkhniy baskunchak,48.2256,46.7217,23.58,66,88,1.96,RU,1722896164
353,salaqi,40.5414,110.5108,20.29,63,69,3.11,CN,1722896166
354,fayzabad,37.1166,70.58,21.45,34,0,0.58,AF,1722896167
355,anadyr,64.75,177.4833,5.28,80,75,6.0,RU,1722896168
356,dila,6.4167,38.3167,17.12,99,100,0.49,ET,1722896169
357,viqueque,-8.8673,126.3658,22.34,90,100,1.87,TL,1722896170
358,biltine,14.5333,20.9167,23.82,89,99,3.3,TD,1722896171
359,cooma,-36.2333,149.1333,3.8,88,4,0.3,AU,1722896172
360,tsuma,32.1,131.4,28.97,82,2,0.47,JP,1722896173
361,portel,-1.9356,-50.8211,28.63,50,0,1.51,BR,1722896174
362,nogliki,51.8333,143.1667,15.32,84,94,3.03,RU,1722896175
363,xilin hot,43.9667,116.0333,18.3,51,0,2.28,CN,1722896176
364,ocean city,39.2776,-74.5746,30.1,71,3,5.74,US,1722896008
365,kralendijk,12.15,-68.2667,29.99,74,20,6.17,BQ,1722896178
366,ain arnat,36.1868,5.3135,22.89,31,0,2.06,DZ,1722896179
367,faya-largeau,17.9257,19.1043,29.95,59,100,6.09,TD,1722896180
368,mpongwe,-13.5091,28.155,15.25,25,1,1.8,ZM,1722896181
369,island harbour,50.724,-1.2758,19.04,78,83,1.34,GB,1722896182
370,rahuri,19.3833,74.65,24.12,86,92,4.72,IN,1722896053
371,emerald,-23.5333,148.1667,15.19,85,96,2.96,AU,1722896185
372,sinop,41.7711,34.8709,17.09,95,76,0.81,TR,1722896186
373,cauayan,9.9718,122.6249,25.71,85,100,3.16,PH,1722896187
374,mukdahan,16.5833,104.5,24.26,92,100,1.86,TH,1722896188
375,greytown,-29.0642,30.5928,7.86,90,59,0.65,ZA,1722896189
376,brigantine,39.4101,-74.3646,30.11,67,20,4.12,US,1722896190
377,mwinilunga,-11.7358,24.4293,16.53,25,1,1.96,ZM,1722896191
378,timbiqui,2.7717,-77.6654,25.43,90,100,2.38,CO,1722896192
379,namibe,-15.1961,12.1522,18.33,85,94,0.4,AO,1722896193
380,fort bragg,35.139,-79.006,29.0,78,100,3.09,US,1722896194
381,cill airne,52.05,-9.5167,10.73,94,22,2.25,IE,1722896195
382,paros,37.0833,25.15,29.06,54,0,2.57,GR,1722896196
383,castillos,-34.1667,-53.8333,13.5,92,100,5.44,UY,1722896197
384,palermo,37.8167,13.5833,22.63,89,34,0.5,IT,1722896081
385,bardai,11.65,7.2333,21.89,93,100,2.54,NG,1722896001
386,jinghong,21.991,100.7341,20.55,99,98,0.66,CN,1722896200
387,bouarfa,32.53,-1.95,30.35,13,65,3.16,MA,1722896202
388,kachia,9.8667,7.95,21.09,87,97,1.64,NG,1722896203
389,fale old settlement,-9.3852,-171.2468,27.82,76,100,5.02,TK,1722896204
390,st. john's,47.5649,-52.7093,21.75,94,75,7.2,CA,1722896118
391,luwuk,-0.9516,122.7875,21.65,93,98,1.68,ID,1722896206
392,shar'ya,58.3686,45.5144,13.92,98,82,1.39,RU,1722896207
393,nakhon phanom,17.3333,104.4167,26.82,93,98,1.26,TH,1722896208
394,taltal,-25.4,-70.4833,15.61,69,18,1.34,CL,1722895820
395,novyy urgal,51.0736,132.5642,19.63,94,100,1.79,RU,1722896210
396,nuku'alofa,-21.1333,-175.2,23.19,68,20,3.09,TO,1722896211
397,posse,-14.0931,-46.3694,25.05,38,32,6.15,BR,1722896212
398,uvira,-3.4067,29.1458,23.07,47,45,1.52,CD,1722896214
399,knyaze-volkonskoye,48.4642,135.4567,23.19,91,80,4.58,RU,1722895934
400,hailun,47.45,126.9333,22.48,93,99,1.67,CN,1722896216
401,korkuteli,37.065,30.1957,20.81,46,26,1.4,TR,1722896218
402,bairnsdale,-37.8333,147.6167,5.03,97,0,2.29,AU,1722896219
403,sao tome,0.3365,6.7273,23.53,83,91,5.32,ST,1722896220
404,alotau,-10.3069,150.4462,23.48,95,100,2.06,PG,1722896221
405,plastun,44.7561,136.2939,17.05,69,38,0.75,RU,1722896222
406,alzamay,55.5562,98.6644,13.73,92,62,1.18,RU,1722896223
407,yongning,24.68,118.69,27.42,84,5,3.2,CN,1722896224
408,pontianak,-0.0333,109.3333,23.99,100,20,0.0,ID,1722896225
409,sao joao da barra,-21.6403,-41.0511,23.05,83,0,8.21,BR,1722896226
410,loch garman,52.3342,-6.4575,15.12,100,100,3.58,IE,1722896190
411,kilindoni,-7.9139,39.6668,24.69,74,1,6.37,TZ,1722896229
412,east london,-33.0153,27.9116,13.92,52,0,2.5,ZA,1722896230
413,mugumu,-1.85,34.7,18.31,70,57,1.27,TZ,1722896231
414,mutuali,-14.8706,37.0044,19.07,36,1,1.28,MZ,1722896233
415,shar,49.5886,81.0453,20.36,51,9,2.22,KZ,1722896234
416,cachoeiras de macacu,-22.4625,-42.6531,20.08,65,73,1.87,BR,1722895936
417,unai,-16.3575,-46.9061,23.55,38,1,1.33,BR,1722896237
418,kievka,50.2619,71.5514,21.55,49,88,1.92,KZ,1722896238
419,kupang,-10.1667,123.5833,25.32,83,20,4.12,ID,1722896239
420,antalaha,-14.9003,50.2788,18.76,90,55,2.7,MG,1722896209
421,aral,40.5156,81.2636,27.7,33,97,2.07,CN,1722896241
422,aldan,58.6031,125.3894,10.17,98,100,1.71,RU,1722896242
423,choszczno,53.169,15.4205,13.21,83,12,1.39,PL,1722896243
424,rio preto da eva,-2.6994,-59.6997,30.18,37,49,1.53,BR,1722896245
425,gadzhiyevo,69.2551,33.3362,8.43,78,2,1.64,RU,1722896246
426,tromso,69.6496,18.957,16.01,72,0,1.03,NO,1722896088
427,millerovo,48.9226,40.3967,19.44,81,59,0.45,RU,1722896248
428,geraldton,-28.7667,114.6,8.23,93,0,6.17,AU,1722896249
429,buka,40.8108,69.1986,21.58,30,1,2.64,UZ,1722896250
430,ruston,32.5232,-92.6379,35.33,46,7,1.85,US,1722896251
431,ugoofaaru,5.6667,73.0,27.87,75,100,2.12,MV,1722896252
432,hasaki,35.7333,140.8333,28.22,83,2,4.04,JP,1722896253
433,gryazi,52.4966,39.9359,20.47,56,100,2.76,RU,1722896254
434,bamboo flat,11.7,92.7167,26.05,94,75,1.03,IN,1722896255
435,sinabang,2.4803,96.3801,25.81,80,100,0.75,ID,1722896256
436,at taj,24.2049,23.2857,30.1,18,1,4.53,LY,1722896257
437,touba,8.2833,-7.6833,21.35,97,29,1.63,CI,1722896258
438,fayroz koh,34.5195,65.2509,13.98,37,0,0.54,AF,1722896259
439,cottonwood,34.7392,-112.0099,39.48,20,50,2.24,US,1722896260
440,taoudenni,22.6783,-3.9836,41.71,11,46,3.86,ML,1722896261
441,ianca,45.1333,27.45,21.12,56,53,3.48,RO,1722896262
442,ghadamis,30.1337,9.5007,29.94,43,0,7.97,LY,1722896264
443,tot'ma,59.9747,42.7642,13.48,99,57,2.17,RU,1722896265
444,saynshand,44.8824,110.1163,22.78,35,16,3.85,MN,1722896266
445,luderitz,-26.6481,15.1594,13.38,59,0,5.64,NA,1722896267
446,tazovsky,67.4667,78.7,5.26,80,70,4.96,RU,1722896268
447,qulsary,46.9531,54.0198,28.76,31,4,3.0,KZ,1722896107
448,swakopmund,-22.6833,14.5333,11.66,84,0,2.59,NA,1722896270
449,westport,41.1415,-73.3579,30.25,64,0,5.66,US,1722895976
450,mamuju,-2.6748,118.8885,25.03,87,61,1.98,ID,1722896272
451,tionk essil,12.7856,-16.5217,26.98,92,100,4.88,SN,1722896273
452,laguna,38.421,-121.4238,38.63,24,0,3.6,US,1722896274
453,matoury,4.8483,-52.3317,28.98,74,0,3.09,GF,1722896275
454,okhotsk,59.3833,143.3,12.03,88,100,8.82,RU,1722896276
455,hammerfest,70.6634,23.6821,16.81,57,8,3.78,NO,1722896277
456,nova xavantina,-14.6667,-52.35,25.37,28,0,1.22,BR,1722896278
457,dellys,36.9172,3.9131,25.73,58,0,3.89,DZ,1722896279
458,kyren,51.6828,102.1408,14.05,94,98,0.79,RU,1722896281
459,yanliang,34.6592,109.2292,25.55,76,0,1.89,CN,1722896282
460,ruy barbosa,-12.2839,-40.4939,22.05,57,29,4.61,BR,1722896283
461,montagu,-40.7667,144.9667,11.41,79,65,6.61,AU,1722896284
462,tibati,6.4667,12.6333,19.71,96,100,1.14,CM,1722896285
463,tarawa,1.419,172.984,29.27,64,91,4.94,KI,1722896286
464,tomatlan,19.9333,-105.25,30.78,73,78,2.09,MX,1722896288
465,carutapera,-1.195,-46.02,26.07,79,29,3.71,BR,1722896290
466,callao,-12.0667,-77.15,20.23,83,74,6.3,PE,1722895808
467,acarau,-2.8856,-40.12,25.42,76,99,7.99,BR,1722896292
468,lindisfarne,-42.8333,147.35,11.23,72,75,3.6,AU,1722896293
469,ostersund,63.1792,14.6357,17.25,82,75,3.09,SE,1722896294
470,little falls,40.869,-74.2082,32.04,57,0,5.14,US,1722896295
471,elliot lake,46.3834,-82.6331,22.83,32,99,2.7,CA,1722895865
472,oak grove,45.4168,-122.6401,31.92,36,0,1.79,US,1722896297
473,hobyo,5.3505,48.5268,24.23,86,58,11.31,SO,1722896193
474,kupiskis,55.8333,24.9667,14.01,90,54,2.86,LT,1722896299
475,luena,-11.7833,19.9167,15.94,23,1,1.45,AO,1722896300
476,kasongo-lunda,-6.4667,16.8167,27.21,38,75,1.42,CD,1722896010
477,nishinoomote,30.7333,131.0,28.54,77,19,3.57,JP,1722896302
478,kattivakkam,13.2167,80.3167,27.2,89,100,3.37,IN,1722896303
479,kudymkar,59.0173,54.656,13.67,97,66,1.54,RU,1722896304
480,xinmin,41.9908,122.8253,22.64,95,3,1.53,CN,1722896305
481,luorong,24.4058,109.6086,25.9,90,79,0.95,CN,1722896306
482,tobelo,1.7284,128.0095,26.28,86,100,1.6,ID,1722896308
483,amungan,15.3652,119.9582,26.84,82,92,3.13,PH,1722896309
484,weno,7.4515,151.8468,28.97,84,75,2.06,FM,1722896310
485,hilo,19.7297,-155.09,29.41,75,0,2.57,US,1722896311
486,alavus,62.5833,23.6167,14.27,69,86,0.83,FI,1722896312
487,la foa,-21.7108,165.8276,18.94,60,0,0.23,NC,1722896313
488,tadine,-21.55,167.8833,20.78,57,3,6.06,NC,1722896314
489,tarrafal de sao nicolau,16.5667,-24.3667,25.5,86,96,2.8,CV,1722896315
490,ayacucho,-13.1583,-74.2239,19.92,26,75,8.75,PE,1722896062
491,zheleznogorsk-ilimskiy,56.5768,104.1217,12.12,77,5,0.68,RU,1722896317
492,karratha,-20.7377,116.8463,16.5,44,52,4.56,AU,1722896318
493,doume,4.2333,13.45,21.27,85,100,1.84,CM,1722896319
494,saposoa,-6.934,-76.7716,29.64,57,92,1.26,PE,1722896320
495,athens,37.9795,23.7162,29.26,57,0,1.54,GR,1722896195
496,taksimo,56.3444,114.8794,16.43,80,98,1.07,RU,1722896322
497,moab,38.5733,-109.5498,39.16,15,18,3.45,US,1722896323
498,jinchang,38.4953,102.1739,25.11,33,80,9.36,CN,1722896324
499,annau,37.8876,58.516,28.72,28,0,4.12,TM,1722896326
500,waddan,29.1614,16.139,32.57,16,0,6.57,LY,1722896327
501,wamba,8.9333,8.6,22.7,88,100,1.19,NG,1722896328
502,khandyga,62.6667,135.6,11.66,92,100,3.36,RU,1722896329
503,padang,-0.9492,100.3543,25.03,88,48,2.34,ID,1722896330
504,strezhevoy,60.7333,77.5889,13.71,97,100,3.02,RU,1722896290
505,pau brasil,-15.4642,-39.6511,18.32,88,4,1.52,BR,1722896332
506,lycksele,64.5954,18.6735,12.93,100,75,0.0,SE,1722896333
507,pangody,65.85,74.4859,7.77,72,39,5.25,RU,1722896334
508,nowy dwor gdanski,54.2131,19.1177,14.87,91,2,2.6,PL,1722896335
509,kruisfontein,-34.0033,24.7314,7.16,56,0,2.49,ZA,1722896336
510,minas de marcona,-15.2119,-75.1103,13.11,71,0,7.1,PE,1722896338
511,novoishimskiy,53.1981,66.7694,16.88,82,63,3.17,KZ,1722896339
512,ranau,5.9538,116.6641,20.56,95,94,0.29,MY,1722896341
513,tuzha,57.6062,47.936,14.65,94,59,1.19,RU,1722896342
514,nuuk,64.1835,-51.7216,10.34,76,100,1.03,GL,1722896343
515,hinton,53.4001,-117.5857,11.58,96,100,1.77,CA,1722896344
516,kristiansund,63.1115,7.732,17.03,96,20,2.57,NO,1722896345
517,benjamin hill,30.1667,-111.1,36.78,29,20,4.92,MX,1722896346
518,cabedelo,-6.9811,-34.8339,23.37,78,10,5.86,BR,1722896347
519,mastung,29.7994,66.845,24.3,72,100,1.59,PK,1722896348
520,broken hill,-31.95,141.4333,5.5,90,0,1.73,AU,1722896349
521,nurota,40.5614,65.6886,23.87,23,0,2.85,UZ,1722896350
522,rufino,-34.2683,-62.7126,15.37,72,0,3.96,AR,1722896351
523,skadovs'k,46.1161,32.9112,23.08,62,100,4.03,UA,1722896352
524,tandil,-37.3217,-59.1332,13.71,80,100,6.01,AR,1722896323
525,corner brook,48.9667,-57.9484,24.09,76,42,1.42,CA,1722896339
526,namasuba,0.6894,32.4214,17.7,63,55,1.22,UG,1722896355
527,sinan,34.8262,126.1086,26.06,87,3,2.84,KR,1722896356
528,tamiahua,21.2667,-97.45,29.96,67,4,3.47,MX,1722896358
529,levuka,50.1834,-105.4011,22.85,43,75,7.2,CA,1722896359
530,anloga,5.7947,0.8973,24.43,84,79,6.66,GH,1722896360
531,kill devil hills,36.0307,-75.676,28.01,89,100,8.75,US,1722896361
532,bela,25.9333,81.9833,30.11,68,100,2.39,IN,1722896362
533,moussoro,13.6408,16.4901,24.39,85,99,2.46,TD,1722896363
534,am timan,11.0297,20.2827,22.23,93,86,1.87,TD,1722896364
535,extrema,-22.8547,-46.3183,20.9,44,43,2.68,BR,1722896365
536,beni,0.5,29.4667,16.72,98,44,0.57,CD,1722896366
537,constitucion,-35.3333,-72.4167,9.97,81,90,2.67,CL,1722896367
538,dickinson,29.4608,-95.0513,35.65,55,40,3.09,US,1722896226
539,langxiang,46.95,128.8833,22.84,96,100,1.13,CN,1722896369
540,correntina,-13.3433,-44.6367,23.32,48,17,2.92,BR,1722896370
541,zilair,52.2332,57.4392,18.18,81,100,1.01,RU,1722896371
542,tulun,54.5611,100.5792,12.45,88,19,1.47,RU,1722896372
543,vorkuta,67.5,64.0,5.16,76,8,1.9,RU,1722896373
544,la ronge,55.1001,-105.2842,21.14,40,75,2.57,CA,1722896375
545,qingyang,37.4958,121.2581,25.63,86,98,0.65,CN,1722896376
546,tura,25.5198,90.2201,24.18,99,100,2.21,IN,1722896377
547,manay,7.215,126.5397,24.42,80,82,2.97,PH,1722896378
548,el nido,11.1858,119.3956,24.52,92,84,4.12,PH,1722896379
549,hit,33.6416,42.8251,34.52,19,0,4.8,IQ,1722896380
550,al hasaheisa,14.7526,33.2984,26.13,73,100,6.64,SD,1722896381
551,buulobarde,3.8538,45.5674,23.28,76,4,8.86,SO,1722896382
552,mil'kovo,55.6078,37.7956,18.68,67,16,1.6,RU,1722896383
553,khorugh,37.4897,71.553,13.95,41,0,1.72,TJ,1722896384
554,saint-philippe,-21.3585,55.7679,18.77,78,25,4.45,RE,1722896385
555,crane,31.3974,-102.3501,35.01,26,39,3.18,US,1722896386
556,lorengau,-2.0226,147.2712,27.68,81,86,3.77,PG,1722896387
557,caucete,-31.6518,-68.2811,22.08,8,0,5.54,AR,1722896388
558,ingeniero jacobacci,-41.3427,-69.5448,6.66,59,49,3.89,AR,1722896389
559,greenfield,42.9614,-88.0126,25.92,67,75,7.2,US,1722896376
560,mesquite,32.7668,-96.5992,37.79,39,40,0.89,US,1722895963
561,urangan,-25.3,152.9,18.66,77,16,2.1,AU,1722896393
562,gobernador roca,-27.1864,-55.4643,20.56,76,12,1.72,AR,1722896394
563,ad darb,17.7229,42.2526,32.27,53,100,5.99,SA,1722896395
564,taroa,8.7058,171.2275,28.6,76,100,4.67,MH,1722896396
565,pimentel,-6.8367,-79.9342,20.16,68,0,9.77,PE,1722896397
566,tozkhurmato,34.8905,44.6299,33.4,18,0,0.63,IQ,1722896398
567,le vauclin,14.5452,-60.8388,28.03,83,75,2.57,MQ,1722896400
