City_ID,City,Lat,Lng,Max Temp,Humidity,Cloudiness,Wind Speed,Country,Date
0,puerto ayora,-0.7393,-90.3518,293.46,92,49,2.24,EC,1722818411
1,tura,25.5198,90.2201,298.65,94,100,1.46,IN,1722818412
2,east london,-33.0153,27.9116,287.1,51,7,9.44,ZA,1722818414
3,bethel,41.3712,-73.414,296.81,88,100,0.45,US,1722818415
4,midvagur,62.0511,-7.1939,285.61,94,100,10.8,FO,1722818416
5,tash-kumyr,41.3461,72.2171,297.64,34,37,1.86,KG,1722818417
6,albany,42.6001,-73.9662,298.65,79,37,0.45,US,1722817757
7,waitangi,-43.9535,-176.5597,284.16,70,100,1.34,NZ,1722818420
8,klaksvik,62.2266,-6.589,285.66,98,100,14.49,FO,1722818421
9,yuzhno-kurilsk,44.0306,145.8556,289.98,99,100,2.3,RU,1722818422
10,khandyga,62.6667,135.6,294.04,40,89,3.05,RU,1722818424
11,blackmans bay,-43.0167,147.3167,285.78,61,8,0.45,AU,1722818425
12,brisas de zicatela,15.8369,-97.0419,301.08,79,99,1.92,MX,1722818426
13,hailar,49.2,119.7,292.59,79,100,5.32,CN,1722818427
14,anadyr,64.75,177.4833,279.43,100,100,8.0,RU,1722818429
15,iskateley,67.6803,53.1512,279.34,74,89,6.33,RU,1722818430
16,adamstown,-25.066,-130.1015,294.3,79,100,7.69,PN,1722818431
17,iqaluit,63.7506,-68.5145,278.0,100,100,1.03,CA,1722818404
18,stanley,54.868,-1.6985,289.1,92,40,3.09,GB,1722818434
19,villa gesell,-37.2639,-56.973,282.62,69,13,4.38,AR,1722818334
20,nantucket,41.2835,-70.0995,298.71,91,0,6.69,US,1722818438
21,grytviken,-54.2811,-36.5092,271.76,84,100,4.67,GS,1722818439
22,edinburgh of the seven seas,-37.0676,-12.3116,286.83,77,51,13.26,SH,1722818440
23,puerto natales,-51.7236,-72.4875,273.95,98,100,0.65,CL,1722818443
24,dudinka,69.4058,86.1778,283.37,56,0,9.22,RU,1722818444
25,mouy,49.3154,2.3195,289.58,91,100,0.65,FR,1722818445
26,isafjordur,66.0755,-23.124,281.25,85,100,8.09,IS,1722818447
27,mananara,-16.1667,49.7667,290.99,92,18,2.34,MG,1722818448
28,saudarkrokur,65.7461,-19.6394,284.41,79,100,5.47,IS,1722818450
29,greymouth,-42.4667,171.2,280.18,93,100,2.02,NZ,1722818452
30,papatowai,-46.5619,169.4708,284.3,62,12,2.17,NZ,1722818453
31,akjoujt,19.6969,-14.4164,300.88,64,100,7.61,MR,1722818454
32,sumbawa besar,-8.5,117.4333,301.91,52,6,2.38,ID,1722818455
33,gisborne,-38.6533,178.0042,284.46,59,64,2.14,NZ,1722818457
34,port-aux-francais,-49.35,70.2167,274.97,67,10,7.32,TF,1722818458
35,tralee,52.2704,-9.7026,290.48,98,100,2.75,IE,1722818460
36,tazacorte,28.629,-17.9293,296.01,93,75,6.17,ES,1722818462
37,aasiaat,68.7098,-52.8699,275.22,91,1,2.45,GL,1722818463
38,margaret river,-33.95,115.0667,289.08,78,98,6.85,AU,1722818464
39,puerto leguizamo,-0.1934,-74.7819,295.7,98,99,1.32,CO,1722818465
40,yellowknife,62.456,-114.3525,295.44,43,75,5.66,CA,1722818467
41,hasaki,35.7333,140.8333,305.53,70,0,2.3,JP,1722818356
42,pandan,14.0453,124.1694,303.14,68,100,3.43,PH,1722818469
43,bilibino,68.0546,166.4372,282.64,58,100,3.74,RU,1722818470
44,juan de acosta,10.8281,-75.0334,301.92,86,96,2.79,CO,1722818472
45,thinadhoo,0.5333,72.9333,301.54,74,100,4.01,MV,1722818473
46,honefoss,60.168,10.2565,287.0,97,26,0.98,NO,1722818474
47,kingston,17.997,-76.7936,303.68,70,20,7.72,JM,1722818475
48,thompson,55.7435,-97.8558,294.24,35,40,4.63,CA,1722818477
49,west island,-12.1568,96.8225,297.14,94,75,3.09,CC,1722818478
50,constantia,44.1833,28.65,293.53,72,5,4.22,RO,1722818479
51,enewetak,11.3474,162.3373,302.04,76,100,4.11,MH,1722818480
52,malabar,-33.9667,151.25,286.55,76,100,2.57,AU,1722818482
53,gadzhiyevo,69.2551,33.3362,280.34,88,3,0.83,RU,1722818483
54,tolanaro,-25.0319,46.9987,292.19,82,20,1.03,MG,1722818484
55,port mathurin,-19.6833,63.4167,295.26,73,5,6.41,MU,1722818485
56,lamu,-2.2717,40.902,296.6,73,12,6.06,KE,1722818487
57,namp'o,38.7375,125.4078,302.23,80,27,4.11,KP,1722818488
58,codrington,-38.2667,141.9667,284.45,56,7,2.91,AU,1722818489
59,santa elena de uairen,4.6167,-61.1333,292.41,91,100,0.85,VE,1722818490
60,kone,-21.0595,164.8658,298.27,40,0,3.77,NC,1722818492
61,porto novo,6.4965,2.6036,297.13,82,26,3.15,BJ,1722818493
62,maintirano,-18.0667,44.0167,292.37,83,5,2.31,MG,1722818494
63,alcantara,-2.4089,-44.4147,299.26,81,83,3.64,BR,1722818495
64,sao jose da coroa grande,-8.8978,-35.1478,297.07,79,41,6.46,BR,1722818497
65,saipan,15.1355,145.701,302.54,79,20,6.69,MP,1722818498
66,laojunmiao,39.8333,97.7333,298.8,17,95,0.86,CN,1722818499
67,tabou,4.423,-7.3528,297.47,84,100,2.58,CI,1722818500
68,invercargill,-46.4,168.35,284.83,72,17,3.13,NZ,1722818502
69,ekibastuz,51.6667,75.3667,292.4,65,2,2.92,KZ,1722818503
70,atar,20.5169,-13.0499,303.8,57,100,6.15,MR,1722818504
71,susuman,62.7833,148.1667,290.48,38,4,2.55,RU,1722818507
72,tromso,69.6496,18.957,287.16,77,0,0.51,NO,1722818508
73,garissa,-0.4536,39.6401,294.85,80,26,5.87,KE,1722818509
74,juneau,58.3019,-134.4197,300.15,100,20,4.63,US,1722818510
75,callao,-12.0667,-77.15,291.33,77,75,5.14,PE,1722818512
76,badger,64.8,-147.5333,297.1,51,0,2.06,US,1722818513
77,abalak,58.1286,68.5944,288.07,91,41,0.86,RU,1722818514
78,weno,7.4515,151.8468,305.12,79,40,3.09,FM,1722818515
79,pamanukan,-6.2842,107.8106,299.14,66,29,2.21,ID,1722818517
80,yeniseysk,58.4497,92.1703,290.14,65,87,2.91,RU,1722818518
81,tazovsky,67.4667,78.7,280.62,68,97,5.87,RU,1722818519
82,cannonvale,-20.2833,148.7,295.14,67,98,4.21,AU,1722818520
83,tucuma,-0.1833,-50.05,299.28,81,68,4.03,BR,1722818522
84,new norfolk,-42.7826,147.0587,286.44,52,7,3.7,AU,1722818523
85,san luis de la loma,17.2706,-100.8939,299.61,88,100,3.14,MX,1722818524
86,arraial do cabo,-22.9661,-42.0278,295.63,90,0,11.11,BR,1722818525
87,konduga,11.6558,13.4213,297.34,80,100,4.43,NG,1722818527
88,laguna,38.421,-121.4238,312.84,19,0,6.17,US,1722818528
89,lihue,21.9789,-159.3672,301.92,64,20,6.17,US,1722818348
90,concordia,-31.393,-58.0209,286.36,95,100,3.58,AR,1722818530
91,kapuskasing,49.4169,-82.4331,292.2,45,40,5.14,CA,1722818532
92,hamilton,39.1834,-84.5333,302.62,66,20,3.6,US,1722818533
93,port elizabeth,-33.918,25.5701,284.31,57,0,7.72,ZA,1722818358
94,ribeira grande,38.5167,-28.7,298.02,95,16,3.58,PT,1722818535
95,nemuro,43.3236,145.575,288.58,100,100,3.67,JP,1722818537
96,sur,22.5667,59.5289,302.07,73,100,3.45,OM,1722818538
97,olonkinbyen,70.9221,-8.7187,279.14,98,100,3.16,SJ,1722818539
98,tiksi,71.6872,128.8694,285.8,63,100,5.26,RU,1722818540
99,miramichi,47.0043,-65.4654,294.62,91,100,2.96,CA,1722818427
100,kailua-kona,19.6406,-155.9956,302.19,77,75,5.14,US,1722818543
101,al fallujah,33.3538,43.7795,303.09,20,0,3.36,IQ,1722818544
102,ushuaia,-54.8,-68.3,272.96,59,75,3.6,AR,1722818426
103,las tablas,7.7667,-80.2833,300.47,99,100,1.44,PA,1722818547
104,dunedin,-45.8742,170.5036,284.09,58,9,1.63,NZ,1722818356
105,kavaratti,10.5669,72.642,300.89,81,100,4.62,IN,1722818549
106,manakara,-22.1333,48.0167,289.72,91,2,2.49,MG,1722818551
107,vorgashor,67.5833,63.95,281.6,65,57,5.03,RU,1722818552
108,utrik,11.2278,169.8474,301.69,80,39,6.51,MH,1722818553
109,kulhudhuffushi,6.6221,73.07,300.82,78,100,4.39,MV,1722818554
110,aktau,43.65,51.2,296.47,49,0,4.41,KZ,1722818556
111,hadibu,12.65,54.0333,298.49,83,100,9.91,YE,1722818557
112,choibalsan,48.0667,114.5,294.61,58,0,6.0,MN,1722818558
113,newman,37.3138,-121.0208,310.4,15,2,4.18,US,1722818559
114,sisimiut,66.9395,-53.6735,282.04,76,100,0.83,GL,1722818561
115,la passe,45.5549,-0.8967,292.28,91,0,2.84,FR,1722818562
116,ulverston,54.1959,-3.0963,289.78,90,100,6.53,GB,1722818563
117,udachny,66.4167,112.4,293.03,44,100,4.81,RU,1722818564
118,cabo san lucas,22.8909,-109.9124,305.32,45,20,4.12,MX,1722818399
119,itaituba,-4.2761,-55.9836,297.89,47,1,0.78,BR,1722818567
120,punta arenas,-53.15,-70.9167,273.21,93,75,1.03,CL,1722818469
121,santiago de cao,-7.9589,-79.2392,290.22,88,32,3.09,PE,1722818569
122,las palmas de gran canaria,28.0997,-15.4134,296.22,73,20,9.77,ES,1722818571
123,carnarvon,-24.8667,113.6333,290.32,46,0,4.03,AU,1722818572
124,boone,39.0334,-92.3335,306.29,55,7,0.45,US,1722818432
125,smithers,54.7804,-127.1743,302.33,20,20,4.63,CA,1722818576
126,breckenridge,32.7557,-98.9023,308.09,25,0,6.3,US,1722818577
127,charlotte amalie,18.3419,-64.9307,302.0,79,0,5.66,VI,1722818578
128,petropavlovsk-kamchatsky,53.0452,158.6483,291.48,63,20,3.0,RU,1722818579
129,pacific grove,36.6177,-121.9166,297.4,89,75,4.12,US,1722818581
130,san patricio,28.017,-97.5169,305.09,58,5,5.07,US,1722818582
131,longyearbyen,78.2186,15.6401,282.06,87,40,4.63,SJ,1722818583
132,coracao de jesus,-16.6853,-44.365,293.13,53,32,4.1,BR,1722818585
133,hun,29.1268,15.9477,302.25,24,0,4.09,LY,1722818586
134,padang,-0.9492,100.3543,299.47,84,24,0.98,ID,1722818587
135,vadso,70.0744,29.7487,283.64,100,100,5.14,NO,1722818588
136,ancud,-41.8697,-73.8203,281.13,91,100,8.32,CL,1722818590
137,san jorge,-31.8962,-61.8598,284.17,49,4,3.64,AR,1722818591
138,georgetown,5.4112,100.3354,300.11,78,20,1.03,MY,1722818463
139,hawaiian paradise park,19.5933,-154.9731,300.31,86,75,3.6,US,1722818594
140,pisco,-13.7,-76.2167,289.83,88,0,3.6,PE,1722818595
141,toamasina,-18.1667,49.3833,290.15,100,20,1.54,MG,1722818596
142,shimoda,34.6667,138.95,304.32,68,0,2.14,JP,1722818597
143,meadow lakes,61.6247,-149.6011,294.32,69,0,2.06,US,1722818599
144,riberalta,-10.9833,-66.1,298.89,60,0,0.96,BO,1722818600
145,manicore,-5.8092,-61.3003,299.93,44,10,0.87,BR,1722818601
146,atafu village,-8.5421,-172.5159,301.01,80,100,5.29,TK,1722818603
147,cockburn town,21.4612,-71.1419,301.45,84,6,9.12,TC,1722818604
148,st. john's,47.5649,-52.7093,294.81,95,75,6.69,CA,1722818346
149,bardsir,29.9227,56.5743,297.44,21,0,1.67,IR,1722818606
150,whitehorse,60.7161,-135.0538,297.09,29,20,1.03,CA,1722818608
151,sassandra,4.95,-6.0833,296.91,84,100,2.3,CI,1722818609
152,kodiak,57.79,-152.4072,284.88,100,100,4.63,US,1722818610
153,vallenar,-28.5708,-70.7581,285.14,63,39,1.27,CL,1722818611
154,happy valley-goose bay,53.3168,-60.3315,296.32,46,40,2.57,CA,1722818613
155,novo aripuana,-5.1206,-60.3797,300.09,40,16,1.32,BR,1722818614
156,hermanus,-34.4187,19.2345,280.82,67,70,8.16,ZA,1722818615
157,mar del plata,-38.0023,-57.5575,283.68,69,12,3.13,AR,1722818522
158,itacare,-14.2775,-38.9967,295.42,87,0,3.23,BR,1722818618
159,las vegas,36.175,-115.1372,317.66,11,0,5.66,US,1722818405
160,ingeniero jacobacci,-41.3427,-69.5448,279.47,55,100,2.55,AR,1722818621
161,fada,7.25,4.0667,293.76,98,90,0.75,NG,1722818622
162,jamestown,42.097,-79.2353,296.95,60,0,2.57,US,1722818372
163,nova sintra,14.8667,-24.7167,299.83,78,100,2.42,CV,1722818624
164,kerikeri,-35.2268,173.9474,287.6,56,40,2.05,NZ,1722818626
165,talara,-4.5772,-81.2719,294.57,83,0,7.67,PE,1722818627
166,ertil',51.8406,40.8056,288.97,97,98,1.72,RU,1722818628
167,rio grande,-32.035,-52.0986,288.21,96,100,8.29,BR,1722818629
168,huarmey,-10.0681,-78.1522,290.18,84,6,4.84,PE,1722818463
169,bredasdorp,-34.5322,20.0403,279.98,69,18,4.66,ZA,1722818632
170,krasnozerskoye,53.9828,79.2374,290.88,77,97,2.11,RU,1722818633
171,sokode,8.9833,1.1333,295.99,100,75,0.0,TG,1722818635
172,kristiansand,58.1467,7.9956,286.4,87,14,1.54,NO,1722818636
173,port augusta,-32.5,137.7667,286.96,62,74,2.31,AU,1722818637
174,pemangkat,1.1667,108.9667,300.42,80,13,2.46,ID,1722818639
175,melfi,40.9965,15.6514,292.97,67,8,1.15,IT,1722818640
176,avarua,-21.2078,-159.775,298.18,69,20,3.6,CK,1722818641
177,talnakh,69.4865,88.3972,285.48,54,0,5.41,RU,1722818643
178,kimbe,-5.5502,150.1429,303.35,66,99,1.48,PG,1722818644
179,menaka,15.9182,2.4022,301.22,65,99,5.82,ML,1722818646
180,port lincoln,-34.7333,135.8667,285.88,70,8,1.86,AU,1722818648
181,ondjiva,-17.0667,15.7333,292.17,19,0,2.57,AO,1722818649
182,dryden,49.7833,-92.7503,292.31,55,75,2.06,CA,1722818651
183,kushiro,42.975,144.3747,293.68,94,75,3.6,JP,1722818652
184,moussoro,13.6408,16.4901,297.15,85,100,4.57,TD,1722818653
185,beyneu,45.3167,55.2,301.57,32,100,1.47,KZ,1722818654
186,surovikino,48.6078,42.8486,293.87,67,99,2.66,RU,1722818656
187,beledweyne,4.7358,45.2036,295.61,77,100,8.12,SO,1722818657
188,mount gambier,-37.8333,140.7667,285.42,52,8,1.54,AU,1722818659
189,rikaze,29.25,88.8833,287.17,59,100,0.2,CN,1722818660
190,fort mcmurray,56.7268,-111.381,297.92,31,0,2.57,CA,1722818661
191,uige,-7.6087,15.0613,289.28,89,100,1.13,AO,1722818663
192,forbes,-33.3833,148.0167,286.44,62,100,1.59,AU,1722818664
193,malango,-2.9627,119.9001,297.03,73,98,1.46,ID,1722818666
194,klyuchi,52.2667,79.1667,293.46,65,31,3.12,RU,1722818667
195,machico,32.7,-16.7667,296.5,78,20,3.6,PT,1722818669
196,horta,38.5333,-28.6333,297.6,95,31,3.58,PT,1722818670
197,san ignacio de velasco,-16.3667,-60.95,300.02,39,78,1.44,BO,1722818671
198,venice,27.0998,-82.4543,301.16,96,100,14.4,US,1722818515
199,palikir - national government center,6.9248,158.1611,304.56,70,75,4.12,FM,1722818674
200,kodinsk,58.6881,99.1844,292.33,60,9,0.58,RU,1722818675
201,alice springs,-23.7,133.8833,283.9,87,100,3.09,AU,1722818676
202,north shore,-36.8,174.75,288.76,61,22,1.79,NZ,1722818678
203,remire-montjoly,4.9167,-52.2667,300.17,89,0,1.03,GF,1722818679
204,ilhabela,-23.7781,-45.3581,294.57,81,85,2.18,BR,1722818680
205,basco,20.4487,121.9702,302.21,72,69,3.04,PH,1722818681
206,turochak,52.2576,87.1224,290.16,84,100,0.99,RU,1722818683
207,pyhaselka,62.4333,29.9667,287.3,91,15,1.9,FI,1722818684
208,fort bragg,35.139,-79.006,298.82,91,20,1.54,US,1722818685
209,la'ie,21.6477,-157.9253,304.13,69,5,4.47,US,1722818686
210,zouerate,22.7187,-12.4521,304.22,36,0,6.47,MR,1722818688
211,tres coracoes,-21.6969,-45.2533,292.48,62,100,0.98,BR,1722818689
212,kandalaksha,67.162,32.4123,282.08,79,40,1.74,RU,1722818690
213,malvan,16.0667,73.4667,299.49,88,100,5.81,IN,1722818692
214,broome,42.2506,-75.833,296.48,86,0,1.51,US,1722818693
215,coos bay,43.3665,-124.2179,295.4,72,75,4.12,US,1722818419
216,lyepyel',54.8814,28.6932,287.36,87,50,1.41,BY,1722818695
217,badiyah,22.45,58.8,303.02,56,100,1.76,OM,1722818697
218,sitka,57.0531,-135.33,299.09,36,0,3.09,US,1722818698
219,borgarnes,64.5383,-21.9206,286.93,82,100,9.14,IS,1722818699
220,mossel bay,-34.1831,22.146,280.11,70,2,5.85,ZA,1722818701
221,nema,57.5067,50.5011,290.27,78,100,1.93,RU,1722818703
222,lengshuitan,26.4111,111.5956,303.79,66,39,4.4,CN,1722818462
223,amursk,50.2261,136.8994,294.34,62,100,2.01,RU,1722818703
224,napier,-39.4833,176.9167,285.53,68,23,1.79,NZ,1722818707
225,aldinga beach,-35.2793,138.4604,285.73,78,99,2.43,AU,1722818708
226,rouissat,31.9243,5.3502,306.19,25,0,2.57,DZ,1722818710
227,whangarei,-35.7317,174.3239,287.33,55,70,1.81,NZ,1722818712
228,haapavesi,64.1333,25.3667,287.33,91,100,0.89,FI,1722818713
229,belene,43.65,25.1167,291.97,72,66,1.78,BG,1722818714
230,sola,-13.8833,167.55,299.52,61,75,7.72,VU,1722818715
231,ust-nera,64.5667,143.2,289.26,52,43,1.8,RU,1722818717
232,kattivakkam,13.2167,80.3167,298.22,99,99,3.52,IN,1722818718
233,slave lake,55.2834,-114.769,292.14,68,75,3.6,CA,1722818719
234,bryne,58.7354,5.6477,285.36,90,0,1.03,NO,1722818722
235,upington,-28.4478,21.2561,278.04,79,2,2.93,ZA,1722818723
236,pitogo,13.7847,122.0881,302.36,72,100,3.85,PH,1722818724
237,mana,5.6592,-53.7767,298.98,87,87,4.89,GF,1722818726
238,guerrero negro,27.9769,-114.0611,296.38,72,17,6.44,MX,1722818727
239,college,64.8569,-147.8028,297.63,53,75,2.06,US,1722818728
240,coquimbo,-29.9533,-71.3436,285.36,73,75,2.06,CL,1722818731
241,colonia,50.9333,6.95,290.83,83,97,1.57,DE,1722818652
242,mejit,10.2753,170.8646,301.81,79,21,6.68,MH,1722818735
243,yeppoon,-23.1333,150.7333,296.07,70,100,4.71,AU,1722818737
244,afif,23.9065,42.9172,300.63,20,97,2.7,SA,1722818739
245,renfrew,55.872,-4.3925,290.57,91,100,4.02,GB,1722818740
246,cestos city,5.46,-9.5828,297.28,86,87,2.58,LR,1722818741
247,vila franca do campo,37.7167,-25.4333,296.38,90,2,1.69,PT,1722818742
248,saint-philippe,-21.3585,55.7679,291.92,76,31,2.52,RE,1722818744
249,rongelap,11.1635,166.8941,301.88,78,73,6.46,MH,1722818745
250,inhambane,-23.865,35.3833,291.73,77,50,5.43,MZ,1722818746
251,daud khel,32.875,71.5701,304.16,70,70,0.88,PK,1722818747
252,chibougamau,49.9168,-74.3659,288.94,51,0,3.09,CA,1722818749
253,ilulissat,69.2167,-51.1,281.16,81,75,0.0,GL,1722818750
254,keflavik,64.0049,-22.5624,285.1,87,100,8.23,IS,1722818751
255,hengchun,22.0042,120.7439,302.56,75,5,4.94,TW,1722818753
256,hami,42.8,93.45,304.59,17,98,3.1,CN,1722818754
257,satipo,-11.2522,-74.6386,297.76,65,96,1.31,PE,1722818755
258,charlottetown,46.2352,-63.1267,297.44,94,100,3.6,CA,1722818636
259,rosetta,31.4044,30.4164,298.94,66,0,0.84,EG,1722818758
260,ungsang-nodongjagu,42.3578,130.4622,292.1,99,100,2.84,KP,1722818759
261,brookings,44.3114,-96.7984,294.29,94,75,4.12,US,1722818581
262,seydi,39.4816,62.9137,300.81,23,0,5.08,TM,1722818762
263,yanykurgan,43.915,67.2481,298.74,25,0,3.58,KZ,1722818763
264,severoural'sk,60.1533,59.952,286.98,99,98,1.54,RU,1722818764
265,tindouf,27.6711,-8.1474,310.4,8,0,2.06,DZ,1722818765
266,solnechnyy,50.7214,136.6319,294.13,57,100,3.19,RU,1722818767
267,suizhou,31.7111,113.3631,304.6,68,94,3.8,CN,1722818768
268,hithadhoo,-0.6,73.0833,301.79,74,100,3.89,MV,1722818769
269,buala,-8.145,159.5921,299.46,87,100,3.46,SB,1722818770
270,praia da vitoria,38.7333,-27.0667,298.01,88,20,3.28,PT,1722818772
271,arvi,20.9833,78.2333,296.56,94,100,2.57,IN,1722818773
272,katsuren-haebaru,26.3369,127.8719,305.58,71,75,6.17,JP,1722818774
273,chonchi,-42.6128,-73.8092,280.71,98,100,2.41,CL,1722818775
274,simplicio mendes,-7.8539,-41.9103,296.23,49,44,2.63,BR,1722818777
275,al 'amarah,31.8406,47.1396,306.27,15,0,4.95,IQ,1722818778
276,yelizovo,53.1873,158.3805,293.23,60,20,3.0,RU,1722818779
277,melekeok village,7.4957,134.6367,304.46,70,75,3.6,PW,1722818780
278,salekhard,66.53,66.6019,281.79,65,100,9.43,RU,1722818782
279,hilo,19.7297,-155.09,300.43,80,75,3.6,US,1722818783
280,lillehammer,61.1146,10.4674,285.05,92,90,1.41,NO,1722818784
281,montepuez,-13.1256,38.9997,288.59,96,21,1.26,MZ,1722818785
282,pertek,38.8663,39.3268,290.91,24,0,2.06,TR,1722818787
283,goundi,9.3627,17.366,294.14,90,100,0.62,TD,1722818788
284,iquitos,-3.7481,-73.2472,298.17,88,40,1.54,PE,1722818764
285,pasuquin,18.3328,120.6177,302.12,84,75,2.06,PH,1722818791
286,morondava,-20.2833,44.2833,290.68,69,0,2.55,MG,1722818792
287,andkhoy,36.9529,65.1238,299.02,20,0,3.71,AF,1722818793
288,molalla,45.1473,-122.577,306.77,26,0,3.6,US,1722818794
289,geraldton,-28.7667,114.6,283.38,87,0,4.63,AU,1722818796
290,shchigry,51.8755,36.9043,287.05,92,0,2.18,RU,1722818797
291,tejen,37.3834,60.5054,301.28,23,0,1.73,TM,1722818798
292,ostersund,63.1792,14.6357,286.4,100,40,2.06,SE,1722818800
293,ulanhot,46.0833,122.0833,299.51,59,100,5.46,CN,1722818801
294,arinos,-15.9169,-46.1056,292.92,50,4,0.64,BR,1722818802
295,thaton,16.9206,97.3714,297.64,93,100,0.94,MM,1722818803
296,fale old settlement,-9.3852,-171.2468,300.83,81,100,6.4,TK,1722818805
297,severodvinsk,64.5635,39.8302,284.21,88,100,3.1,RU,1722818806
298,port alfred,-33.5906,26.891,285.76,60,1,10.61,ZA,1722818807
299,bamboo flat,11.7,92.7167,299.2,94,40,0.0,IN,1722818808
300,arkalyk,50.2486,66.9114,291.16,59,0,2.66,KZ,1722818810
301,ar rutbah,33.0381,40.2848,300.14,41,0,6.17,IQ,1722818811
302,selfoss,63.9331,-20.9971,284.29,75,100,12.43,IS,1722818812
303,pauini,-7.7136,-66.9764,298.66,68,0,1.27,BR,1722818813
304,pawni,20.7833,79.6333,296.97,95,54,2.46,IN,1722818815
305,manta,-0.95,-80.7333,297.03,78,75,5.66,EC,1722818816
306,antalaha,-14.9003,50.2788,291.33,86,82,2.8,MG,1722818800
307,usinsk,65.9939,57.5281,285.59,80,100,9.7,RU,1722818819
308,sainte-anne-des-monts,49.124,-66.4924,294.08,49,90,2.57,CA,1722818820
309,adam,22.3756,57.5233,304.48,43,100,2.4,OM,1722818821
310,coahuayana de hidalgo,18.7,-103.6583,300.46,83,100,1.49,MX,1722818822
311,sao vicente,-23.9631,-46.3919,302.25,57,99,0.88,BR,1722818734
312,trincomalee,8.5711,81.2335,299.44,84,15,5.44,LK,1722818825
313,port saint john's,-31.6229,29.5448,287.46,63,100,7.04,ZA,1722818826
314,zakamensk,50.3741,103.2863,289.74,81,100,0.53,RU,1722818827
315,miles city,46.4083,-105.8406,305.69,31,0,11.32,US,1722818829
316,reyhanli,36.2692,36.5672,300.81,84,2,5.54,TR,1722818830
317,kristiansund,63.1115,7.732,289.18,93,100,1.03,NO,1722818832
318,lerwick,60.1545,-1.1494,288.15,92,100,10.12,GB,1722818833
319,grootfontein,-19.5667,18.1167,288.81,25,0,5.9,NA,1722818834
320,port isabel,26.0734,-97.2086,305.19,74,0,5.14,US,1722818836
321,uturoa,-16.7333,-151.4333,297.84,71,5,7.22,PF,1722818837
322,sterling,39.0062,-77.4286,300.93,76,0,1.79,US,1722818610
323,lompoc,34.6391,-120.4579,294.73,75,0,5.66,US,1722818839
324,al jahra',29.3375,47.6581,309.61,17,7,5.56,KW,1722818841
325,tanumah,27.1,44.1333,301.1,13,3,5.08,SA,1722818842
326,ghadamis,30.1337,9.5007,300.28,50,0,4.65,LY,1722818845
327,kruisfontein,-34.0033,24.7314,281.42,67,5,6.58,ZA,1722818846
328,danville,36.586,-79.395,299.75,89,10,1.79,US,1722818847
329,bubaque,11.2833,-15.8333,299.57,81,100,3.43,GW,1722818848
330,guarapari,-20.6667,-40.4975,294.76,85,93,3.26,BR,1722818850
331,howard springs,-12.497,131.047,300.1,86,31,3.36,AU,1722818851
332,jayapura,-2.5333,140.7,300.81,65,100,2.24,ID,1722818852
333,komsomolets,53.7453,62.0708,287.69,93,89,2.96,KZ,1722818853
334,quellon,-43.1167,-73.6167,280.61,94,100,3.13,CL,1722818775
335,hammerfest,70.6634,23.6821,292.4,63,0,2.57,NO,1722818856
336,puerto baquerizo moreno,-0.9,-89.6,292.79,85,26,5.63,EC,1722818857
337,harper,4.375,-7.7169,297.53,83,100,3.09,LR,1722818859
338,danshui,22.7984,114.4672,305.32,69,56,1.22,CN,1722818860
339,haiku-pauwela,20.9219,-156.3051,301.16,69,20,10.29,US,1722818614
340,flying fish cove,-10.4217,105.6791,296.97,88,75,3.6,CX,1722818862
341,lodwar,3.1191,35.5973,301.9,45,57,4.79,KE,1722818864
342,lata,40.1629,-8.3327,290.41,97,35,0.93,PT,1722818865
343,sao tome,0.3365,6.7273,296.38,78,88,3.63,ST,1722818866
344,mahdia,35.5047,11.0622,300.12,64,0,7.62,TN,1722818867
345,ginir,7.1333,40.7,289.84,75,91,2.34,ET,1722818869
346,nehe,48.4833,124.8333,298.8,75,100,3.7,CN,1722818870
347,imamoglu,37.2651,35.6572,300.72,88,4,0.77,TR,1722818871
348,lib,8.3122,167.3766,301.84,77,18,4.97,MH,1722818872
349,north ward,-19.2454,146.8075,296.1,64,75,6.17,AU,1722818874
350,midoun,33.8081,10.9923,301.07,67,0,6.58,TN,1722818875
351,priob'ye,62.5206,65.5964,289.91,87,14,0.24,RU,1722818876
352,bikenibeu village,1.3673,173.1241,304.13,66,20,3.6,KI,1722818878
353,abrud,46.2667,23.0667,285.9,93,100,1.35,RO,1722818879
354,labrador city,52.9463,-66.9114,288.1,71,40,8.05,CA,1722818880
355,margate,51.3813,1.3862,288.32,83,46,4.9,GB,1722818881
356,khammam,17.25,80.15,298.7,84,15,2.39,IN,1722818883
357,bhimunipatnam,17.8833,83.4333,300.88,79,100,1.52,IN,1722818884
358,cuamba,-14.8031,36.5372,289.57,42,24,0.76,MZ,1722818885
359,polyarnyy,69.1989,33.4478,280.75,86,4,0.37,RU,1722818887
360,kismayo,-0.3582,42.5454,297.3,72,58,7.53,SO,1722818888
361,lhokseumawe,5.1801,97.1507,299.76,80,100,1.3,ID,1722818889
362,wailua homesteads,22.0669,-159.378,301.59,72,20,6.17,US,1722818890
363,warmbad,-28.45,18.7333,278.9,89,0,2.88,NA,1722818892
364,kibre mengist,5.8833,38.9833,287.3,93,85,0.97,ET,1722818893
365,mount isa,-20.7333,139.5,297.02,43,25,3.09,AU,1722818894
366,port alberni,49.2413,-124.8028,302.0,46,0,4.47,CA,1722818895
367,manga,11.6636,-1.0731,296.08,92,97,2.61,BF,1722818897
368,sciacca,37.5082,13.0881,299.83,74,0,1.58,IT,1722818898
369,zeya,53.75,127.2667,290.55,98,100,3.15,RU,1722818899
370,san antonio,29.4241,-98.4936,307.44,47,0,6.69,US,1722818888
371,east ballina,-28.8667,153.5833,290.82,63,100,0.37,AU,1722818902
372,nyurba,63.2842,118.3319,293.14,47,19,3.28,RU,1722818903
373,posto da mata,-17.8848,-39.8536,292.5,98,12,1.25,BR,1722818904
374,buka,40.8108,69.1986,295.71,26,88,3.14,UZ,1722818906
375,bandarbeyla,9.4942,50.8122,297.98,78,100,12.86,SO,1722818907
376,lodja,-3.4833,23.4333,293.96,68,14,0.98,CD,1722818908
377,dawesville,30.9224,-84.0091,297.41,91,100,1.79,US,1722818910
378,peace river,56.2501,-117.286,291.32,77,100,5.66,CA,1722818911
379,walvis bay,-22.9575,14.5053,283.2,79,2,6.04,NA,1722818852
380,al ghayzah,16.2079,52.176,297.76,85,27,3.58,YE,1722818913
381,bovril,-31.3431,-59.4451,285.44,70,0,4.35,AR,1722818915
382,geneina,13.45,22.45,293.55,95,100,6.55,SD,1722818916
383,aykhal,66.0,111.5,293.73,40,36,6.61,RU,1722818917
384,sungai penuh,-2.0833,101.3833,294.22,87,97,1.07,ID,1722818918
385,peniche,39.3558,-9.3811,292.75,91,2,6.9,PT,1722818920
386,santa marta,11.2408,-74.199,304.18,70,20,2.06,CO,1722818678
387,tahe,52.3333,124.7333,294.83,87,100,1.68,CN,1722818922
388,tidjikja,18.5564,-11.4271,299.39,71,100,8.55,MR,1722818923
389,al hasakah,36.5024,40.7477,302.42,47,0,3.83,SY,1722818925
390,ribeira brava,32.65,-17.0667,296.5,69,0,2.38,PT,1722818926
391,wuhai,39.6647,106.8122,301.51,34,12,1.43,CN,1722818927
392,khamis mushait,18.3064,42.7292,294.49,68,20,0.0,SA,1722818928
393,jambi city,-1.6,103.6167,300.04,73,71,1.8,ID,1722818930
394,puerto deseado,-47.7503,-65.8938,278.15,95,95,4.79,AR,1722818931
395,holualoa,19.6228,-155.9522,300.06,82,75,5.14,US,1722818932
396,mikhaylovka,50.06,43.2379,294.1,56,90,1.49,RU,1722818933
397,acarau,-2.8856,-40.12,298.15,83,4,7.09,BR,1722818703
398,shatrovo,56.5167,64.6333,287.04,92,17,2.73,RU,1722818938
399,tyuratam,45.6507,63.3156,298.86,33,100,0.21,KZ,1722818940
400,terekli-mekteb,44.1671,45.8698,297.21,63,0,3.42,RU,1722818941
401,smidovich,48.6,133.8167,295.16,85,100,4.47,RU,1722818942
402,dubbo,-32.25,148.6167,284.22,76,100,3.6,AU,1722818943
403,caconda,-13.7333,15.0667,286.99,19,0,0.39,AO,1722818945
404,mugia,43.1041,-9.2179,292.68,93,2,2.91,ES,1722818946
405,isla vista,34.4133,-119.861,308.14,41,98,3.0,US,1722818808
406,northam,51.0333,-4.2167,290.03,92,46,6.21,GB,1722818949
407,nakasongola,1.3089,32.4564,290.14,78,59,1.33,UG,1722818950
408,namibe,-15.1961,12.1522,288.71,89,0,1.55,AO,1722818952
409,pailin,12.849,102.6093,298.71,92,100,1.09,KH,1722818953
410,vila velha,-20.3297,-40.2925,294.79,97,75,1.03,BR,1722818954
411,utete,-7.986,38.758,292.15,90,0,1.26,TZ,1722818957
412,lebu,-37.6167,-73.65,283.4,92,100,13.27,CL,1722818958
413,norilsk,69.3535,88.2027,285.0,56,0,4.97,RU,1722818959
414,manokwari,-0.8667,134.0833,297.17,91,100,1.22,ID,1722818960
415,madison,34.7334,-86.5667,303.59,69,0,2.24,US,1722818806
416,ust'-uda,54.1742,103.0304,291.07,65,0,1.34,RU,1722818963
417,aberdeen,57.1437,-2.0981,287.89,99,75,5.66,GB,1722818964
418,pergamino,-33.89,-60.5736,282.73,61,100,3.39,AR,1722818893
419,dengzhou,37.8086,120.7508,297.14,92,100,2.21,CN,1722818968
420,nar'yan-mar,67.6713,53.087,279.31,74,94,6.35,RU,1722818969
421,ola,59.5833,151.2833,288.92,74,0,2.23,RU,1722818970
422,mul,20.0667,79.6667,297.43,94,78,1.56,IN,1722818972
423,meizhou,24.2977,116.1072,303.0,68,62,0.91,CN,1722818973
424,galle,6.0367,80.217,302.0,81,57,0.45,LK,1722818974
425,mocimboa,-11.3167,40.35,293.02,88,1,1.86,MZ,1722818975
426,shahrak,34.1074,64.3052,288.26,31,0,1.95,AF,1722818977
427,bejaia,36.7559,5.0843,295.75,78,0,1.54,DZ,1722818978
428,al hazm,16.1641,44.7769,302.19,45,89,2.43,YE,1722818979
429,novyy turtkul',41.55,61.0167,297.1,25,7,5.13,UZ,1722818980
430,kon tum,14.35,108.0,297.18,88,48,0.59,VN,1722818982
431,touros,-5.1989,-35.4608,296.48,82,16,5.36,BR,1722818983
432,diamantino,-14.4086,-56.4461,296.55,35,0,2.92,BR,1722818974
433,kudahuvadhoo,2.6708,72.8944,301.48,72,100,6.47,MV,1722818987
434,el nido,11.1858,119.3956,300.45,90,100,5.49,PH,1722818988
435,loreto,22.2667,-101.9667,296.44,35,54,4.95,MX,1722818989
436,alofi,-19.0595,-169.9187,300.09,78,75,5.14,NU,1722818991
437,alo,6.5486,4.2686,297.15,88,29,2.88,NG,1722818992
438,winslow,35.0242,-110.6974,306.25,24,0,7.72,US,1722818993
439,chegdomyn,51.1167,133.0167,287.81,98,100,2.06,RU,1722818994
440,djibouti,11.5,42.5,302.94,56,100,1.82,DJ,1722818996
441,georgiyevka,43.0369,74.7114,293.17,68,40,2.0,KZ,1722818997
442,nandura buzurg,20.8333,76.45,297.66,88,100,3.35,IN,1722818998
443,maragogi,-9.0122,-35.2225,296.61,81,62,5.57,BR,1722818968
444,sofifi,0.7349,127.576,300.86,76,100,0.0,ID,1722819001
445,mirny,62.5353,113.9611,291.32,51,86,2.26,RU,1722819002
446,reinosa,42.9996,-4.138,288.39,81,0,0.56,ES,1722819003
447,bossangoa,6.4926,17.4552,294.03,97,100,0.67,CF,1722819005
448,armenia,40.0,45.0,287.45,72,0,5.57,AM,1722818941
449,muntok,-2.0667,105.1833,300.77,74,4,4.75,ID,1722819007
450,xinyuan,37.3,99.0,284.3,73,2,1.19,CN,1722819008
451,charlestown,-32.95,151.6667,289.09,76,100,1.64,AU,1722819010
452,cranbrook,49.4999,-115.7688,290.06,94,100,2.06,CA,1722819011
453,corner brook,48.9667,-57.9484,296.24,98,100,1.97,CA,1722819012
454,al ain city,24.1917,55.7606,301.94,79,0,3.09,AE,1722819013
455,magadan,59.5667,150.8,289.2,71,2,1.82,RU,1722819015
456,sirte,31.2089,16.5887,300.57,50,0,4.81,LY,1722819016
457,jogeva,58.7467,26.3939,286.98,98,50,1.68,EE,1722819017
458,kavieng,-2.5744,150.7967,301.79,73,100,4.55,PG,1722819018
459,monrovia,6.3005,-10.7969,297.02,86,79,2.53,LR,1722819020
460,solan,30.9167,77.1167,296.98,78,75,0.0,IN,1722819021
461,maslyanino,54.3436,84.2111,291.03,90,93,0.42,RU,1722819022
462,vicuna,-30.0319,-70.7081,281.0,71,100,0.34,CL,1722819024
463,dongola,19.1667,30.4833,301.58,72,18,5.42,SD,1722819025
464,harstad,68.799,16.5293,287.12,73,11,1.8,NO,1722819026
465,mareeba,-17.0,145.4333,293.84,81,38,3.66,AU,1722819027
466,noosa heads,-26.3833,153.15,292.78,56,39,3.73,AU,1722819029
467,mount pearl,47.5166,-52.7813,294.34,95,75,6.69,CA,1722818877
468,kashmor,28.4333,69.5833,303.28,70,9,1.32,PK,1722819031
469,onega,63.9061,38.1404,284.9,88,100,2.24,RU,1722819032
470,afaahiti,-17.75,-149.2833,299.08,74,6,5.05,PF,1722819035
471,urzhar,47.093,81.6294,298.41,35,17,0.98,KZ,1722819036
472,isiro,2.7739,27.616,292.02,99,100,0.57,CD,1722819037
473,jeddah,21.5169,39.2192,306.07,66,20,3.09,SA,1722818969
474,krasnovishersk,60.4078,57.082,286.61,99,97,1.36,RU,1722819040
475,taperoa,-7.2075,-36.8267,291.86,90,1,4.49,BR,1722819041
476,egilsstadir,65.2653,-14.3948,284.1,82,75,8.75,IS,1722819042
477,ambovombe,-25.1667,46.0833,289.54,89,1,2.59,MG,1722819043
478,vilyuchinsk,52.9306,158.4028,293.3,73,100,2.35,RU,1722818941
479,nagqu,31.5,92.0,280.11,70,0,1.22,CN,1722819046
480,lospalos,-8.5186,127.0025,297.07,71,100,4.54,TL,1722819049
481,irtyshsk,53.3333,75.4572,290.67,82,5,3.21,KZ,1722819050
482,antsiranana,-12.2787,49.2917,294.09,76,7,6.34,MG,1722819051
483,nazca,-14.8333,-74.95,291.33,59,0,1.14,PE,1722819052
484,bantay,17.5847,120.3892,302.57,83,100,1.68,PH,1722819054
485,prince rupert,54.3161,-130.3201,290.98,89,0,6.69,CA,1722819055
486,korla,41.7597,86.1469,303.58,26,16,4.08,CN,1722819057
487,warora,20.2333,79.0,297.46,91,63,2.29,IN,1722819060
488,dizangue,3.7667,9.9833,296.79,94,100,0.81,CM,1722819061
489,russkiy kameshkir,52.8589,46.0892,288.59,97,100,1.54,RU,1722819063
490,abyek,36.0667,50.55,292.93,50,0,0.85,IR,1722819064
491,tual,-5.6667,132.75,298.37,85,86,8.95,ID,1722819065
492,altamont,42.2068,-121.7372,307.26,22,0,5.66,US,1722819066
493,vershino-darasunskiy,52.35,115.5167,292.94,54,0,2.36,RU,1722819068
494,pariaman,-0.619,100.12,298.18,84,80,0.3,ID,1722819069
495,perote,19.5667,-97.2333,287.76,86,99,2.28,MX,1722819070
496,kamaishi,39.2667,141.8833,301.34,74,23,1.94,JP,1722819071
497,meulaboh,4.1363,96.1285,298.49,89,100,1.25,ID,1722819073
498,plouzane,48.3833,-4.6167,287.53,94,0,3.09,FR,1722819074
499,kindu,-2.95,25.95,295.13,57,10,1.2,CD,1722819075
500,chui,-33.6971,-53.4616,285.03,84,100,2.31,UY,1722819072
501,massena,44.9281,-74.8919,297.66,87,0,1.79,US,1722819064
502,berezhani,49.45,24.9333,288.8,66,81,1.36,UA,1722819079
503,puerto san jose,13.9256,-90.8244,303.18,75,75,2.06,GT,1722818991
504,gamba,-2.65,10.0,294.22,79,92,2.23,GA,1722819081
505,taibet,33.0829,6.3998,302.03,25,0,3.09,DZ,1722819083
506,kuching,1.55,110.3333,302.23,83,60,1.17,MY,1722819084
507,atmore,31.0238,-87.4939,300.74,84,54,2.04,US,1722819085
508,ingeniero guillermo n. juarez,-23.9,-61.85,294.58,62,41,2.25,AR,1722819087
509,jianshui,23.6363,102.8264,294.49,92,100,0.87,CN,1722819088
510,tsiombe,-25.3,45.4833,288.7,93,1,1.48,MG,1722819089
511,pervomayskoye,43.919,46.7102,295.68,75,0,3.28,RU,1722819023
512,ilion,38.0333,23.7,302.16,61,5,2.68,GR,1722819092
513,mangaratiba,-22.9597,-44.0406,293.63,73,0,1.85,BR,1722819093
514,nadi,-17.8,177.4167,298.15,65,40,6.17,FJ,1722819094
515,ujae,8.9322,165.7642,301.85,78,23,4.87,MH,1722819095
516,west fargo,46.875,-96.9004,295.94,66,0,2.06,US,1722819097
517,waingapu,-9.6567,120.2641,300.09,61,13,6.02,ID,1722819098
518,ar ruways,24.1103,52.7306,305.19,58,10,4.61,AE,1722819100
519,mata-utu,-13.2816,-176.1745,300.15,73,100,3.1,WF,1722819101
520,uvinza,-5.1036,30.3911,291.53,32,68,0.61,TZ,1722819102
521,crane,31.3974,-102.3501,305.66,31,84,7.97,US,1722819104
522,hamamatsu,34.7,137.7333,306.44,56,3,2.83,JP,1722819105
523,lauro de freitas,-12.8944,-38.3272,298.16,69,40,3.09,BR,1722818815
524,igarka,67.4667,86.5833,282.7,64,48,6.2,RU,1722819107
525,vernon,50.2581,-119.2691,310.24,18,0,2.24,CA,1722819109
526,vichuga,57.2128,41.9301,286.47,96,39,2.39,RU,1722819110
527,oruro,-17.9833,-67.15,279.42,17,0,2.05,BO,1722819111
528,xilin hot,43.9667,116.0333,296.59,45,0,3.4,CN,1722819114
529,saint david's,12.0333,-61.6667,300.84,83,20,3.09,GD,1722819115
530,belmonte,-15.8631,-38.8828,295.17,88,59,2.4,BR,1722819116
531,at taj,24.2049,23.2857,300.43,23,43,4.33,LY,1722819117
532,sassnitz,54.5167,13.65,289.71,73,70,9.37,DE,1722819119
533,thames,-37.1333,175.5333,286.11,55,24,1.29,NZ,1722819120
534,ceelbuur,4.685,46.6176,295.65,77,69,7.47,SO,1722819121
535,samus',56.7475,84.6992,291.06,95,83,2.28,RU,1722819122
536,skelleftea,64.7507,20.9528,288.15,100,75,1.54,SE,1722819124
537,belen,36.4891,36.2233,297.23,69,0,6.69,TR,1722819125
538,labytnangi,66.6572,66.4183,282.5,61,100,9.14,RU,1722819126
539,balabac,7.9868,117.0645,302.18,71,100,3.12,PH,1722819128
540,itoman,26.1247,127.6694,305.98,74,40,7.72,JP,1722819129
541,princesa isabel,-7.7367,-37.9933,293.2,72,48,3.96,BR,1722819130
542,jiuquan,39.7432,98.5174,303.04,15,98,3.08,CN,1722819132
543,fortuna,40.5982,-124.1573,288.66,95,100,3.6,US,1722819133
544,dakhla,23.6848,-15.958,293.44,94,19,3.61,EH,1722819134
545,aquidaba,-10.2814,-37.0186,293.33,79,51,2.81,BR,1722819135
546,vorontsovka,50.6132,40.3549,288.65,97,99,2.23,RU,1722819137
547,okhotsk,59.3833,143.3,289.69,64,98,2.55,RU,1722819138
548,boguchany,58.3814,97.4531,292.47,62,6,0.8,RU,1722819139
549,midlothian,32.4824,-96.9945,307.82,45,3,2.68,US,1722818980
550,villa bruzual,9.3328,-69.1208,297.87,90,17,0.85,VE,1722819142
551,mahina,-17.5065,-149.489,300.02,65,20,2.57,PF,1722819143
552,idri,27.5,13.2667,301.67,17,0,1.69,LY,1722819144
553,chistopol',55.3631,50.6424,290.02,86,100,2.93,RU,1722819146
554,shingu,33.7333,135.9833,303.57,70,14,2.02,JP,1722819147
555,pesaro,43.9036,12.8903,296.4,81,17,1.39,IT,1722819148
556,bonthe,7.5264,-12.505,298.15,85,100,2.17,SL,1722819150
557,kruje,41.5092,19.7928,291.16,83,0,2.06,AL,1722819151
558,shangzhi,45.2167,127.9667,300.19,88,18,5.69,CN,1722819152
559,san juan de la maguana,18.8059,-71.2299,297.53,88,100,1.61,DO,1722819153
560,devils lake,48.1128,-98.8651,289.79,81,37,4.47,US,1722819155
561,bengkulu,-3.8004,102.2655,297.96,90,33,3.53,ID,1722819156
562,george town,5.4112,100.3354,302.11,78,20,1.03,MY,1722818991
563,chernyshevskiy,63.0128,112.4714,292.16,44,0,1.76,RU,1722819159
564,poretskoye,55.1974,46.3291,286.39,95,16,2.43,RU,1722819160
565,acapulco de juarez,16.8634,-99.8901,303.05,70,75,1.54,MX,1722819161
566,san jose de ocoa,18.55,-70.5,297.54,88,100,2.62,DO,1722819162
567,gwadar,25.1216,62.3254,302.39,75,100,2.54,PK,1722819164
568,ataq,14.5377,46.8319,298.68,64,100,8.81,YE,1722819165
