City_ID,City,Lat,Lng,Max Temp,Humidity,Cloudiness,Wind Speed,Country,Date
0,grytviken,-54.2811,-36.5092,267.26,76,100,4.27,GS,1722872876
1,vila velha,-20.3297,-40.2925,301.12,76,40,4.12,BR,1722872877
2,klyuchi,52.2667,79.1667,292.78,56,56,1.76,RU,1722872878
3,iqaluit,63.7506,-68.5145,279.0,93,100,2.06,CA,1722872881
4,minas de marcona,-15.2119,-75.1103,288.06,63,41,7.25,PE,1722872882
5,avarua,-21.2078,-159.775,297.18,78,40,3.6,CK,1722872883
6,itoman,26.1247,127.6694,303.2,91,75,4.63,JP,1722872885
7,igarape miri,-1.975,-48.9597,308.89,30,32,2.47,BR,1722872886
8,adamstown,-25.066,-130.1015,292.42,67,47,6.55,PN,1722872887
9,jamestown,42.097,-79.2353,300.92,69,89,5.18,US,1722872747
10,west island,-12.1568,96.8225,299.14,69,84,4.63,CC,1722872890
11,puerto ayora,-0.7393,-90.3518,296.13,79,85,4.95,EC,1722872891
12,constantia,44.1833,28.65,300.76,51,100,5.73,RO,1722872661
13,vadso,70.0744,29.7487,288.64,82,6,6.17,NO,1722872893
14,wenchang,30.904,118.4887,297.28,77,97,2.1,CN,1722872895
15,puerto natales,-51.7236,-72.4875,273.4,93,20,0.0,CL,1722872896
16,makurdi,7.7411,8.5121,301.61,70,84,3.21,NG,1722872897
17,lycksele,64.5954,18.6735,291.72,77,40,4.63,SE,1722872899
18,yellowknife,62.456,-114.3525,291.16,77,75,3.6,CA,1722872900
19,port elizabeth,-33.918,25.5701,289.31,51,0,6.17,ZA,1722872768
20,carnarvon,-24.8667,113.6333,291.28,58,0,3.98,AU,1722872902
21,ancud,-41.8697,-73.8203,280.96,86,100,8.68,CL,1722872904
22,invercargill,-46.4,168.35,276.49,91,45,1.34,NZ,1722872905
23,hawaiian paradise park,19.5933,-154.9731,293.88,95,100,2.06,US,1722872906
24,herval,-32.0236,-53.3956,289.11,96,100,4.75,BR,1722872908
25,gersheim,49.15,7.2,299.01,47,0,1.54,DE,1722872909
26,grande prairie,55.1667,-118.8027,285.25,94,100,2.57,CA,1722872911
27,gulf shores,30.246,-87.7008,305.69,67,0,3.09,US,1722872913
28,whangarei,-35.7317,174.3239,279.73,95,69,1.24,NZ,1722872852
29,boa vista,2.8197,-60.6733,303.14,66,75,2.06,BR,1722872915
30,fale old settlement,-9.3852,-171.2468,301.01,79,100,5.34,TK,1722872916
31,hassi messaoud,31.6804,6.0729,313.07,15,0,2.06,DZ,1722872918
32,atafu village,-8.5421,-172.5159,300.93,79,79,3.41,TK,1722872919
33,waitangi,-43.9535,-176.5597,281.38,94,86,0.89,NZ,1722872920
34,fort bragg,35.139,-79.006,303.05,75,75,1.34,US,1722872921
35,sogndal,61.2283,7.1003,297.36,49,20,1.54,NO,1722872923
36,bethel,41.3712,-73.414,303.37,63,0,1.54,US,1722872924
37,ilulissat,69.2167,-51.1,282.16,71,20,1.54,GL,1722872925
38,utrik,11.2278,169.8474,301.54,79,100,7.33,MH,1722872926
39,jayapura,-2.5333,140.7,298.81,93,55,2.21,ID,1722872928
40,slave lake,55.2834,-114.769,288.14,88,75,1.03,CA,1722872929
41,urzhar,47.093,81.6294,297.3,23,0,3.59,KZ,1722872930
42,tromso,69.6496,18.957,297.16,46,0,4.63,NO,1722872932
43,ugoofaaru,5.6667,73.0,301.21,74,100,2.04,MV,1722872933
44,dakhla,23.6848,-15.958,297.16,73,20,7.72,EH,1722872934
45,qaqortoq,60.7167,-46.0333,281.91,70,100,1.43,GL,1722872935
46,ushuaia,-54.8,-68.3,271.94,74,20,3.09,AR,1722872938
47,blackmans bay,-43.0167,147.3167,283.56,73,94,0.89,AU,1722872939
48,la passe,45.5549,-0.8967,304.28,58,0,5.36,FR,1722872940
49,georgetown,5.4112,100.3354,303.11,78,20,2.06,MY,1722872942
50,aasiaat,68.7098,-52.8699,275.84,90,85,2.11,GL,1722872944
51,margate,51.3813,1.3862,296.31,67,4,0.89,GB,1722872945
52,beihai,21.4833,109.1,302.44,77,53,2.79,CN,1722872947
53,stanley,54.868,-1.6985,296.13,71,75,4.63,GB,1722872948
54,sterling,39.0062,-77.4286,306.42,50,20,3.09,US,1722872949
55,lamongan,-7.1167,112.4167,296.8,77,13,1.04,ID,1722872951
56,hamilton,39.1834,-84.5333,304.94,65,0,2.06,US,1722872660
57,bull savanna,17.8868,-77.5902,302.69,65,38,7.53,JM,1722872953
58,villa gesell,-37.2639,-56.973,288.18,70,100,5.99,AR,1722872954
59,tura,25.5198,90.2201,297.76,97,100,2.61,IN,1722872956
60,badger,64.8,-147.5333,289.89,83,40,0.45,US,1722872957
61,namibe,-15.1961,12.1522,291.56,82,5,6.03,AO,1722872958
62,albany,42.6001,-73.9662,302.53,66,30,0.89,US,1722872745
63,callao,-12.0667,-77.15,292.83,77,100,3.09,PE,1722872888
64,port-aux-francais,-49.35,70.2167,273.89,67,23,3.11,TF,1722872962
65,daru,-9.0763,143.2092,297.27,89,98,6.58,PG,1722872963
66,pangkalanbuun,-2.6833,111.6167,295.51,92,31,0.43,ID,1722872964
67,thompson,55.7435,-97.8558,290.24,51,20,4.12,CA,1722872966
68,hermanus,-34.4187,19.2345,287.48,74,19,5.98,ZA,1722872967
69,kolonia,50.9333,6.95,301.28,50,0,2.57,DE,1722872750
70,tazovsky,67.4667,78.7,283.16,62,97,5.31,RU,1722872969
71,vilyuchinsk,52.9306,158.4028,286.3,89,99,0.49,RU,1722872971
72,codrington,-38.2667,141.9667,278.52,95,16,4.36,AU,1722872972
73,lihue,21.9789,-159.3672,298.73,83,0,6.69,US,1722872973
74,isangel,-19.55,169.2667,292.87,69,22,5.13,VU,1722872974
75,punta arenas,-53.15,-70.9167,273.16,86,0,3.09,CL,1722872976
76,udachny,66.4167,112.4,283.54,85,87,8.18,RU,1722872977
77,kapuskasing,49.4169,-82.4331,292.2,45,75,4.12,CA,1722872495
78,la ronge,55.1001,-105.2842,290.27,67,100,1.54,CA,1722872980
79,kannus,63.9,23.9,290.61,44,2,1.75,FI,1722872981
80,guiuan,11.0333,125.7247,301.59,78,99,8.98,PH,1722872982
81,port mathurin,-19.6833,63.4167,295.61,76,4,8.55,MU,1722872983
82,dalnegorsk,44.5604,135.5701,287.08,84,100,0.58,RU,1722872985
83,taishan,22.2514,112.7799,302.49,79,100,1.13,CN,1722872986
84,hinton,53.4001,-117.5857,283.88,98,100,1.26,CA,1722872987
85,castillos,-34.1667,-53.8333,287.84,79,95,4.19,UY,1722872988
86,remire-montjoly,4.9167,-52.2667,305.17,58,75,3.6,GF,1722872990
87,kodiak,57.79,-152.4072,284.88,100,100,4.12,US,1722872991
88,bengkulu,-3.8004,102.2655,297.41,92,12,3.31,ID,1722872992
89,petropavlovsk-kamchatsky,53.0452,158.6483,285.48,100,100,1.0,RU,1722872993
90,penhalonga,-18.8911,32.6978,293.52,14,0,2.98,ZW,1722872995
91,mo i rana,66.3128,14.1428,296.66,58,75,6.26,NO,1722872997
92,tiksi,71.6872,128.8694,282.96,93,99,1.83,RU,1722872998
93,fort st. john,56.2499,-120.8529,285.09,87,100,4.63,CA,1722873000
94,crane,31.3974,-102.3501,301.96,40,69,3.4,US,1722873001
95,iskateley,67.6803,53.1512,284.29,68,4,7.51,RU,1722873002
96,santiago de cuba,20.0247,-75.8219,304.21,70,20,2.57,CU,1722873003
97,acton,51.509,-0.2762,299.38,64,75,5.66,GB,1722873005
98,tshabong,-26.05,22.45,287.14,22,0,3.03,BW,1722873006
99,olonkinbyen,70.9221,-8.7187,279.55,94,100,2.32,SJ,1722873007
100,lompoc,34.6391,-120.4579,294.77,90,100,0.0,US,1722873008
101,freetown,8.484,-13.2299,299.13,81,99,3.48,SL,1722873010
102,colby,39.3958,-101.0524,304.31,41,12,5.36,US,1722873011
103,gamay,12.3854,125.2979,297.98,94,97,1.47,PH,1722873012
104,chonchi,-42.6128,-73.8092,281.71,96,100,3.57,CL,1722873013
105,talnakh,69.4865,88.3972,283.62,59,0,2.87,RU,1722873015
106,yartsevo,55.0667,32.6964,292.02,87,100,1.93,RU,1722873016
107,santa cruz,-17.8,-63.1667,301.85,65,40,7.2,BO,1722872611
108,limon,10.0,-83.0333,303.74,79,20,3.6,CR,1722873019
109,bredasdorp,-34.5322,20.0403,284.19,75,16,3.31,ZA,1722873020
110,east london,-33.0153,27.9116,288.67,55,0,5.14,ZA,1722873021
111,longyearbyen,78.2186,15.6401,285.06,76,20,7.72,SJ,1722873023
112,minas de matahambre,22.5887,-83.9447,303.92,65,93,2.9,CU,1722873024
113,baise city,23.8997,106.6133,299.0,92,47,0.32,CN,1722873025
114,severo-yeniseyskiy,60.3725,93.0408,289.51,72,84,1.23,RU,1722873026
115,afaahiti,-17.75,-149.2833,294.08,74,89,4.76,PF,1722873028
116,weno,7.4515,151.8468,301.12,83,40,1.54,FM,1722873029
117,nenjiang,49.1833,125.2167,293.27,78,2,1.13,CN,1722873030
118,ulladulla,-35.35,150.4667,278.58,73,60,2.91,AU,1722873032
119,puerto asis,0.5133,-76.5007,295.92,96,99,0.83,CO,1722873033
120,sandston,37.5235,-77.3158,304.34,77,40,0.0,US,1722873034
121,lebu,-37.6167,-73.65,283.58,71,100,2.29,CL,1722873035
122,nadym,65.5333,72.5167,284.06,64,99,6.34,RU,1722873037
123,hammerfest,70.6634,23.6821,295.4,49,0,5.14,NO,1722873038
124,san julian,21.0167,-102.1667,292.9,52,4,3.44,MX,1722873039
125,margaret river,-33.95,115.0667,288.84,87,49,7.33,AU,1722873040
126,ndende,-2.4008,11.3581,303.17,45,95,3.08,GA,1722873042
127,kochubey,44.3861,46.5825,300.84,59,0,4.39,RU,1722873043
128,san patricio,28.017,-97.5169,305.32,53,0,1.46,US,1722873044
129,bordj bou arreridj,36.0732,4.7611,306.58,11,0,5.11,DZ,1722873046
130,rio grande,-32.035,-52.0986,291.21,92,91,5.06,BR,1722873047
131,belyy yar,53.6039,91.3903,291.09,82,40,6.0,RU,1722873048
132,kaka,37.3482,59.6143,308.91,14,0,3.65,TM,1722873049
133,the hammocks,25.6715,-80.4445,306.15,73,40,5.66,US,1722873051
134,st. john's,47.5649,-52.7093,297.81,85,75,9.77,CA,1722872812
135,port alfred,-33.5906,26.891,287.69,64,1,1.34,ZA,1722873053
136,palikir - national government center,6.9248,158.1611,297.56,88,75,1.54,FM,1722873054
137,ghanzi,-21.5667,21.7833,294.58,18,0,3.39,BW,1722873056
138,assab,13.0092,42.7394,304.7,74,100,7.87,ER,1722873057
139,hadibu,12.65,54.0333,298.75,81,100,7.75,YE,1722873058
140,sohbatpur,28.5202,68.5434,309.72,45,73,3.01,PK,1722873059
141,sri dungargarh,28.0833,74.0167,303.39,68,96,5.27,IN,1722873062
142,pisco,-13.7,-76.2167,290.18,77,100,1.03,PE,1722872946
143,luderitz,-26.6481,15.1594,288.67,57,0,9.06,NA,1722873064
144,arkhangel'sk,64.5401,40.5433,288.21,82,40,5.0,RU,1722873066
145,ivdel',60.6911,60.4206,284.14,98,100,4.07,RU,1722873067
146,salyan,39.5936,48.9805,301.79,60,0,4.99,AZ,1722873068
147,papatowai,-46.5619,169.4708,278.24,85,21,3.26,NZ,1722873069
148,ingeniero guillermo n. juarez,-23.9,-61.85,301.67,42,82,2.07,AR,1722873071
149,nema,57.5067,50.5011,290.9,88,54,2.44,RU,1722873072
150,arteaga,18.4667,-102.4167,297.65,69,74,1.74,MX,1722873073
151,bilibino,68.0546,166.4372,275.04,75,99,2.28,RU,1722873074
152,balqash,46.8481,74.995,300.4,32,100,5.32,KZ,1722873076
153,edinburgh of the seven seas,-37.0676,-12.3116,287.15,84,60,13.52,SH,1722873077
154,yilan,24.757,121.753,302.54,93,49,0.73,TW,1722873078
155,ta`u,-14.2336,-169.5144,298.77,76,3,1.91,AS,1722873079
156,pangai,-19.8,-174.35,295.64,65,6,6.86,TO,1722873081
157,eydhafushi,5.1033,73.0708,301.01,71,100,1.0,MV,1722873082
158,mirnyy,62.5353,113.9611,287.07,59,17,1.8,RU,1722873083
159,whakatane,-37.9585,176.9854,278.99,99,77,0.89,NZ,1722873084
160,guayaramerin,-10.8368,-65.3614,308.18,38,0,3.6,BO,1722873086
161,road town,18.4167,-64.6167,304.17,70,40,5.66,VG,1722873087
162,ribeira grande,38.5167,-28.7,299.69,83,40,5.66,PT,1722873088
163,el rosal,4.8531,-74.26,291.79,56,100,1.95,CO,1722873089
164,la foa,-21.7108,165.8276,288.87,73,7,1.82,NC,1722873091
165,dhanwar,24.4167,85.9833,301.35,75,100,1.42,IN,1722873092
166,riachao das neves,-11.7461,-44.91,303.67,25,0,4.01,BR,1722873093
167,champerico,14.3,-91.9167,303.45,72,92,1.14,GT,1722873094
168,lake havasu city,34.4839,-114.3224,311.74,29,76,1.79,US,1722873096
169,olinda,-8.0089,-34.8553,302.0,58,40,6.17,BR,1722873097
170,arteche,12.2645,125.4048,298.35,94,90,1.85,PH,1722873098
171,barcelos,41.5388,-8.6151,299.64,55,6,6.7,PT,1722873101
172,santa sylvina,-27.8326,-61.1375,297.23,50,6,2.37,AR,1722873102
173,kayangel,8.0823,134.7173,301.62,77,99,3.4,PW,1722873103
174,moree,-29.4667,149.85,285.1,98,100,2.17,AU,1722873104
175,dover,39.1582,-75.5244,305.98,66,0,0.45,US,1722873106
176,kifri,34.6959,44.9661,312.59,13,0,4.65,IQ,1722873107
177,calatayud,41.3535,-1.6432,310.52,17,15,1.13,ES,1722873108
178,balkanabat,39.5108,54.3671,307.66,30,0,4.0,TM,1722873109
179,portland,45.5234,-122.6762,293.47,72,0,0.89,US,1722872838
180,college,64.8569,-147.8028,289.93,87,40,0.0,US,1722873112
181,xinyuan,37.3,99.0,281.83,87,73,2.2,CN,1722873113
182,abepura,-2.6333,140.5833,298.6,94,20,2.57,ID,1722873114
183,sao joao da barra,-21.6403,-41.0511,302.2,74,0,7.85,BR,1722873116
184,enshi,30.3,109.4833,297.51,91,64,0.95,CN,1722873117
185,lhokseumawe,5.1801,97.1507,299.26,85,82,2.33,ID,1722873118
186,nemuro,43.3236,145.575,289.68,100,100,0.85,JP,1722873119
187,lerwick,60.1545,-1.1494,289.15,97,100,7.76,GB,1722873121
188,ati,13.2154,18.3353,297.56,85,100,3.51,TD,1722873122
189,tamanrasset,22.785,5.5228,311.1,14,40,1.03,DZ,1722873123
190,mar del plata,-38.0023,-57.5575,287.16,73,0,3.09,AR,1722872921
191,kalmunai,7.4167,81.8167,301.4,77,79,4.49,LK,1722873126
192,kuraymah,18.55,31.85,308.37,38,77,4.12,SD,1722873127
193,nishinoomote,30.7333,131.0,301.91,77,21,3.33,JP,1722873128
194,lethbridge,49.7,-112.8186,290.21,82,75,2.06,CA,1722873129
195,nabire,-3.3667,135.4833,296.6,94,81,1.34,ID,1722873131
196,martapura,-3.4167,114.85,298.2,94,100,1.03,ID,1722873132
197,turaif,31.6725,38.6637,309.29,5,0,7.2,SA,1722873133
198,tazacorte,28.629,-17.9293,298.69,82,20,5.66,ES,1722873134
199,cole harbour,44.6724,-63.4751,298.81,85,100,4.12,CA,1722872878
200,saipan,15.1355,145.701,300.54,83,0,2.57,MP,1722873137
201,turinsk,58.0458,63.696,290.46,90,65,1.44,RU,1722873138
202,wailua homesteads,22.0669,-159.378,298.39,82,0,6.69,US,1722873139
203,jimeta,9.2833,12.4667,307.28,49,40,6.17,NG,1722873141
204,lakheri,25.6667,76.1667,299.08,80,94,4.47,IN,1722873142
205,hasaki,35.7333,140.8333,299.37,86,12,1.44,JP,1722873143
206,nelson bay,-32.7167,152.15,284.87,96,100,2.93,AU,1722873144
207,kruisfontein,-34.0033,24.7314,287.53,57,4,2.28,ZA,1722873146
208,puerto rico,-26.796,-55.024,302.92,34,6,3.26,AR,1722873147
209,wewak,-3.5534,143.6268,298.77,89,55,3.48,PG,1722873148
210,loushanguan,28.1375,106.82,295.06,91,6,1.99,CN,1722873149
211,lorengau,-2.0226,147.2712,299.88,84,97,3.39,PG,1722873151
212,i-n-salah,27.1935,2.4607,318.69,8,2,4.83,DZ,1722873152
213,roven'ky,48.0833,39.3776,295.08,65,80,2.53,UA,1722873153
214,numata,36.6333,139.05,298.78,92,59,1.49,JP,1722873154
215,tommot,58.9564,126.2925,287.23,98,100,1.34,RU,1722873156
216,high rock,26.6208,-78.2833,301.16,79,100,8.48,BS,1722873157
217,prince rupert,54.3161,-130.3201,286.2,98,100,1.03,CA,1722873158
218,tolanaro,-25.0319,46.9987,297.19,78,0,3.09,MG,1722873159
219,ust-nera,64.5667,143.2,283.79,69,95,2.1,RU,1722873161
220,saudarkrokur,65.7461,-19.6394,285.58,82,89,4.07,IS,1722873162
221,carutapera,-1.195,-46.02,303.97,57,59,5.81,BR,1722873163
222,machali,-34.1833,-70.6667,281.75,81,100,1.57,CL,1722873164
223,tymovskoye,50.8456,142.655,283.81,95,64,3.5,RU,1722873166
224,port lincoln,-34.7333,135.8667,282.79,83,62,3.94,AU,1722873167
225,cabo san lucas,22.8909,-109.9124,303.81,62,19,3.58,MX,1722873168
226,chertkovo,49.3847,40.1547,291.82,91,98,3.1,RU,1722873169
227,bafra,41.5678,35.9069,297.95,70,64,3.17,TR,1722873003
228,greenville,35.6127,-77.3663,303.22,86,75,0.0,US,1722873172
229,murzuq,25.9155,13.9184,314.03,8,0,4.22,LY,1722873173
230,smithers,54.7804,-127.1743,287.33,62,20,1.54,CA,1722873174
231,cudahy,33.9606,-118.1853,301.97,71,0,1.54,US,1722873176
232,tonj,7.2737,28.6822,299.47,73,100,2.19,SS,1722873177
233,flying fish cove,-10.4217,105.6791,296.97,88,75,5.66,CX,1722873178
234,sangueya,10.7,-14.3667,300.34,84,99,3.23,GN,1722873179
235,fauske,67.2588,15.3918,294.69,48,40,1.94,NO,1722873181
236,nikolayevsk,50.0282,45.4595,301.75,34,93,3.49,RU,1722873182
237,westport,41.1415,-73.3579,304.92,61,0,3.09,US,1722873183
238,nova sintra,14.8667,-24.7167,300.72,68,15,1.33,CV,1722873184
239,saint-pierre,-21.3393,55.4781,292.35,79,27,2.54,RE,1722873186
240,meadow lake,34.8014,-106.5436,301.56,48,1,5.66,US,1722873187
241,alice springs,-23.7,133.8833,277.9,87,0,1.54,AU,1722873188
242,pacific grove,36.6177,-121.9166,286.97,97,100,3.58,US,1722873189
243,magadan,59.5667,150.8,285.24,85,100,1.05,RU,1722873190
244,tra vinh,9.9347,106.3453,298.11,93,82,2.01,VN,1722873192
245,coahuayana de hidalgo,18.7,-103.6583,303.51,62,88,0.43,MX,1722873193
246,uturoa,-16.7333,-151.4333,299.49,68,100,5.75,PF,1722873194
247,mount isa,-20.7333,139.5,291.02,68,75,5.14,AU,1722873195
248,sitka,57.0531,-135.33,290.09,72,20,0.0,US,1722873197
249,vila franca do campo,37.7167,-25.4333,299.38,67,53,5.0,PT,1722873198
250,belmonte,-15.8631,-38.8828,299.03,59,0,4.08,BR,1722873199
251,nova olinda do norte,-3.8881,-59.0942,310.15,23,15,2.8,BR,1722873200
252,zheleznodorozhnyy,55.7503,38.0042,297.24,56,97,2.74,RU,1722873202
253,mahibadhoo,3.7833,72.9667,301.39,71,100,2.04,MV,1722873203
254,papao,-17.75,-149.55,294.97,73,32,5.5,PF,1722873204
255,ryotsu-minato,38.0833,138.4333,296.52,90,95,2.58,JP,1722873205
256,paragominas,-2.9667,-47.4833,308.43,29,47,2.84,BR,1722873207
257,charters towers,-20.1,146.2667,287.29,92,30,4.0,AU,1722873208
258,fort mcmurray,56.7268,-111.381,288.92,67,0,2.57,CA,1722872940
259,hotan,37.0997,79.9269,306.41,21,25,0.74,CN,1722873210
260,shiraoi,42.55,141.35,294.38,91,100,1.18,JP,1722873212
261,bedford,52.1346,-0.4663,298.6,71,40,7.72,GB,1722873213
262,boshan,36.4833,117.8333,296.52,90,74,1.76,CN,1722873214
263,fisterra,42.9049,-9.2629,299.83,92,41,4.98,ES,1722873215
264,manggar,-2.8833,108.2667,300.31,74,88,5.73,ID,1722873217
265,strezhevoy,60.7333,77.5889,291.43,84,100,2.82,RU,1722873218
266,acapulco de juarez,16.8634,-99.8901,296.05,94,100,5.14,MX,1722873085
267,ust'-ilimsk,58.0006,102.6619,287.62,65,4,1.16,RU,1722873220
268,choibalsan,48.0667,114.5,289.83,83,91,2.28,MN,1722873222
269,kismayo,-0.3582,42.5454,297.84,76,9,7.29,SO,1722873223
270,naldurg,17.8167,76.3,298.39,79,100,5.8,IN,1722873224
271,egilsstadir,65.2653,-14.3948,286.1,76,75,4.63,IS,1722873225
272,chela,34.069,104.4619,285.96,92,37,0.64,CN,1722873227
273,mhamid,29.82,-5.72,318.33,5,6,3.74,MA,1722873228
274,sihanoukville,10.6093,103.5296,300.12,89,40,0.51,KH,1722873229
275,buka,40.8108,69.1986,302.46,18,20,4.23,UZ,1722873231
276,ashford,51.1459,0.8728,297.35,70,0,5.27,GB,1722873232
277,touros,-5.1989,-35.4608,300.98,63,25,8.3,BR,1722873033
278,ovria,38.1833,21.7167,304.98,56,2,3.06,GR,1722873234
279,chardara,41.2547,67.9692,302.58,25,0,5.72,KZ,1722873236
280,tosontsengel,48.7567,98.2839,286.35,49,5,1.4,MN,1722873237
281,nar'yan-mar,67.6713,53.087,284.32,68,4,7.51,RU,1722873238
282,dajal,29.5577,70.3762,309.47,47,1,3.28,PK,1722873241
283,fort wellington,6.4,-57.6,303.56,64,79,4.74,GY,1722873242
284,changyon,38.2508,125.0961,298.72,96,5,1.7,KP,1722873243
285,lander,42.833,-108.7307,297.58,46,0,2.06,US,1722873244
286,pemangkat,1.1667,108.9667,300.19,78,14,2.48,ID,1722873246
287,inhambane,-23.865,35.3833,295.04,74,76,8.96,MZ,1722873247
288,san antonio oeste,-40.7319,-64.9477,288.28,39,100,5.74,AR,1722873248
289,port douglas,-16.4833,145.4667,292.86,84,3,2.88,AU,1722873251
290,bamboo flat,11.7,92.7167,299.2,89,75,2.57,IN,1722873252
291,ebon,4.582,168.6964,301.97,74,60,5.81,MH,1722873253
292,palmas,-10.2128,-48.3603,307.03,19,20,5.14,BR,1722873102
293,polyarnyy,69.1989,33.4478,288.47,60,0,4.96,RU,1722873256
294,neyshabur,36.2133,58.7958,305.41,14,2,4.16,IR,1722873257
295,nuuk,64.1835,-51.7216,285.49,62,75,2.57,GL,1722873258
296,san luis,-33.295,-66.3356,293.32,26,0,6.13,AR,1722873259
297,labrador city,52.9463,-66.9114,286.1,62,100,5.14,CA,1722873010
298,kishtwar,33.3167,75.7667,294.95,94,64,0.56,IN,1722873262
299,kalevala,65.2,31.1667,291.17,52,99,2.82,RU,1722873263
300,praia da vitoria,38.7333,-27.0667,302.29,65,20,4.63,PT,1722873264
301,plettenberg bay,-34.0527,23.3716,286.04,53,10,1.54,ZA,1722873266
302,thurso,58.5927,-3.5259,291.29,77,87,5.05,GB,1722873267
303,port moresby,-9.4431,147.1797,297.83,83,20,5.14,PG,1722873268
304,san fernando de apure,7.8878,-67.4724,296.81,96,100,3.9,VE,1722873269
305,nicoya,10.1483,-85.452,302.25,72,8,2.23,CR,1722873271
306,zouerate,22.7187,-12.4521,313.44,13,0,7.73,MR,1722873272
307,kapa'a,22.0752,-159.319,299.14,82,0,6.69,US,1722873273
308,flin flon,54.7682,-101.865,291.06,55,75,1.03,CA,1722873274
309,arraial do cabo,-22.9661,-42.0278,302.07,58,0,6.17,BR,1722873276
310,whitehorse,60.7161,-135.0538,282.58,76,20,1.03,CA,1722873277
311,emerald,-23.5333,148.1667,287.78,79,26,2.71,AU,1722873278
312,zambezi,-13.5432,23.1047,301.32,9,3,1.97,ZM,1722873279
313,bayganin,48.6947,55.8742,304.21,21,2,2.16,KZ,1722873281
314,aykhal,66.0,111.5,281.77,90,15,7.18,RU,1722873282
315,holualoa,19.6228,-155.9522,294.57,89,100,0.22,US,1722873283
316,kailua-kona,19.6406,-155.9956,296.64,89,100,0.06,US,1722873284
317,natal,-5.795,-35.2094,302.51,54,40,9.77,BR,1722873202
318,haiku-pauwela,20.9219,-156.3051,296.07,85,98,1.34,US,1722873287
319,sisimiut,66.9395,-53.6735,281.26,75,86,2.66,GL,1722873288
320,enewetak,11.3474,162.3373,301.46,76,98,2.12,MH,1722873289
321,aban,56.67,96.06,290.42,76,95,2.23,RU,1722873291
322,acarau,-2.8856,-40.12,304.83,48,74,7.81,BR,1722873292
323,kolonia town,6.964,158.206,298.15,88,75,1.54,FM,1722873293
324,khandyga,62.6667,135.6,286.03,90,100,1.47,RU,1722873294
325,dongargarh,21.2,80.7333,298.46,91,92,3.32,IN,1722873296
326,jerome,42.7241,-114.5186,300.62,52,70,4.55,US,1722873297
327,tvoroyri,61.5556,-6.8111,284.56,89,67,7.62,FO,1722873299
328,sorong,-0.8833,131.25,298.0,92,100,3.48,ID,1722873301
329,atasu,48.6814,71.6433,297.35,34,93,2.58,KZ,1722873302
330,salinopolis,-0.6136,-47.3561,302.39,65,55,7.1,BR,1722873303
331,ciudad lazaro cardenas,17.9583,-102.2,301.8,73,99,1.47,MX,1722873304
332,salur,18.5333,83.2167,300.37,86,96,1.44,IN,1722873306
333,butere,0.2064,34.4935,299.64,67,89,2.0,KE,1722873307
334,fortuna,40.5982,-124.1573,287.34,98,100,3.09,US,1722873308
335,chita,52.0333,113.55,288.09,77,15,1.0,RU,1722873309
336,euclides da cunha,-10.5075,-39.0158,297.99,52,88,4.98,BR,1722873311
337,tralee,52.2704,-9.7026,291.29,63,75,2.57,IE,1722873312
338,usinsk,65.9939,57.5281,287.2,57,100,7.72,RU,1722873313
339,kone,-21.0595,164.8658,287.93,78,5,1.57,NC,1722873314
340,rongelap,11.1635,166.8941,301.58,79,100,7.23,MH,1722873315
341,koh kong,11.6175,102.9806,299.83,84,96,1.61,KH,1722873317
342,sona,45.4388,10.8255,305.9,43,0,1.54,IT,1722873318
343,el calafate,-50.3408,-72.2768,273.39,90,85,2.5,AR,1722873319
344,isafjordur,66.0755,-23.124,286.17,67,75,4.63,IS,1722873321
345,mount gambier,-37.8333,140.7667,277.85,100,41,2.28,AU,1722873322
346,machico,32.7,-16.7667,300.5,59,40,3.09,PT,1722873323
347,canutama,-6.5339,-64.3831,310.73,22,4,2.41,BR,1722873324
348,nazarovo,56.0064,90.3914,290.59,88,100,2.13,RU,1722873326
349,novyy urgal,51.0736,132.5642,290.71,97,100,0.29,RU,1722873327
350,glace bay,46.1969,-59.957,300.25,82,75,5.66,CA,1722873328
351,karratha,-20.7377,116.8463,292.47,36,0,3.74,AU,1722873329
352,gadzhiyevo,69.2551,33.3362,287.77,64,0,5.15,RU,1722873331
353,north platte,41.1239,-100.7654,299.09,53,0,3.09,US,1722873332
354,xai-xai,-25.0519,33.6442,293.66,74,36,6.47,MZ,1722873333
355,trujillo,-8.116,-79.03,290.13,88,75,3.09,PE,1722873051
356,tingi,-11.3,35.0333,291.49,41,3,1.83,TZ,1722873335
357,sarupathar,26.1984,93.8094,299.18,89,99,0.57,IN,1722873337
358,maloye ganyushkino,46.6,49.2667,302.47,37,1,3.36,KZ,1722873338
359,coyuca de catalan,18.3333,-100.65,299.12,84,95,0.09,MX,1722873339
360,south venice,27.0531,-82.4243,303.17,100,75,9.77,US,1722873340
361,impfondo,1.6381,18.0667,304.08,52,100,0.96,CG,1722873342
362,san pedro,14.35,121.0167,300.01,89,75,1.54,PH,1722873343
363,jardinopolis,-21.0178,-47.7639,303.83,22,20,4.63,BR,1722873344
364,santa marta,11.2408,-74.199,304.18,74,20,2.57,CO,1722873345
365,barranca,-10.75,-77.7667,292.08,71,51,4.54,PE,1722873347
366,berezovyy,51.6667,135.7,289.46,95,100,1.89,RU,1722873348
367,rurrenabaque,-14.4413,-67.5278,298.09,94,75,2.57,BO,1722873349
368,sao geraldo do araguaia,-6.4006,-48.555,309.93,19,4,2.02,BR,1722873350
369,koudougou,12.25,-2.3667,302.18,66,97,4.19,BF,1722873352
370,howrah,22.5892,88.3103,302.15,89,40,3.09,IN,1722873353
371,new norfolk,-42.7826,147.0587,284.22,74,100,2.79,AU,1722873354
372,walvis bay,-22.9575,14.5053,288.76,65,6,7.51,NA,1722873355
373,trairi,-3.2778,-39.2689,303.12,51,53,7.48,BR,1722873243
374,lagoa,39.05,-27.9833,297.28,86,52,7.32,PT,1722873358
375,sajir,25.1825,44.5996,309.1,13,20,1.32,SA,1722873361
376,yarmouth,41.7057,-70.2286,303.23,75,0,2.06,US,1722873362
377,richmond,37.5538,-77.4603,304.28,79,40,0.0,US,1722873027
378,newman,37.3138,-121.0208,298.85,29,0,1.33,US,1722873364
379,bulgan,48.8125,103.5347,287.41,80,13,1.89,MN,1722873366
380,island harbour,50.724,-1.2758,296.57,68,5,2.24,GB,1722873367
381,sanford,28.8006,-81.2731,300.47,95,100,8.75,US,1722873368
382,iaciara,-14.0958,-46.6317,304.81,21,0,3.71,BR,1722873369
383,quellon,-43.1167,-73.6167,281.54,91,100,7.21,CL,1722873371
384,ketchikan,55.3422,-131.6461,289.41,88,0,2.06,US,1722873372
385,huarmey,-10.0681,-78.1522,293.05,71,13,4.56,PE,1722873373
386,buzuluk,52.7807,52.2635,295.4,56,100,1.66,RU,1722873374
387,vodnyy,63.5046,53.4095,286.99,95,96,2.62,RU,1722873376
388,taltal,-25.4,-70.4833,289.95,66,0,2.78,CL,1722873377
389,tonala,20.6167,-103.2333,295.58,62,17,0.97,MX,1722873378
390,lospalos,-8.5186,127.0025,294.56,90,80,2.74,TL,1722873379
391,kirakira,-10.4544,161.9205,298.73,88,100,5.02,SB,1722873380
392,mejit,10.2753,170.8646,301.54,80,100,6.74,MH,1722873382
393,garachico,28.7781,-17.7646,297.21,65,20,5.66,ES,1722873383
394,kingston,17.997,-76.7936,306.57,70,20,7.72,JM,1722872863
395,katsuren-haebaru,26.3369,127.8719,303.2,90,75,4.63,JP,1722873385
396,ha'il,27.5219,41.6907,310.16,20,0,8.23,SA,1722873387
397,hilo,19.7297,-155.09,296.27,84,100,2.06,US,1722873388
398,alaghsas,17.0187,8.0168,307.09,49,0,7.2,NE,1722873389
399,yorkton,51.2167,-102.4677,289.06,82,75,1.03,CA,1722873390
400,rameswaram,9.2833,79.3,301.1,82,18,9.07,IN,1722873392
401,mount pearl,47.5166,-52.7813,296.11,90,99,5.36,CA,1722873393
402,pama,11.2497,0.7075,302.39,69,91,2.64,BF,1722873394
403,praya,14.9215,-23.5087,304.45,62,75,5.66,CV,1722873395
404,saldanha,-33.0117,17.9442,287.18,72,4,4.54,ZA,1722873397
405,ypsonas,34.6884,32.9574,302.69,54,0,10.29,CY,1722873398
406,metlili chaamba,32.2667,3.6333,311.67,14,0,2.57,DZ,1722873399
407,kangding,30.0513,101.9603,289.65,90,80,1.3,CN,1722873400
408,alo,6.5486,4.2686,299.23,73,92,5.42,NG,1722873402
409,matoury,4.8483,-52.3317,305.13,58,75,3.6,GF,1722873403
410,horta,38.5333,-28.6333,299.27,88,40,5.66,PT,1722873113
411,porto novo,6.4965,2.6036,301.05,69,100,5.14,BJ,1722873407
412,rabaul,-4.1967,152.1721,298.64,85,9,4.73,PG,1722873408
413,abu jibeha,11.4562,31.2285,296.41,87,100,2.56,SD,1722873409
414,oamaru,-45.0784,170.9801,278.92,67,22,2.72,NZ,1722873410
415,camana,-16.6228,-72.7111,289.75,81,55,4.7,PE,1722873412
416,queenstown,-31.8976,26.8753,284.51,21,0,2.91,ZA,1722873413
417,happy valley-goose bay,53.3168,-60.3315,298.32,44,20,3.6,CA,1722873413
418,manokwari,-0.8667,134.0833,299.41,79,89,3.34,ID,1722873415
419,as sulayyil,20.4607,45.5779,316.29,11,100,4.89,SA,1722873417
420,nagqu,31.5,92.0,279.7,78,7,1.53,CN,1722873418
421,anadyr,64.75,177.4833,275.43,93,75,6.0,RU,1722873419
422,tongging,2.8969,98.5262,289.83,93,96,0.9,ID,1722873420
423,havre,49.5833,0.3333,297.37,64,0,4.63,FR,1722873422
424,unai,-16.3575,-46.9061,302.49,28,0,4.9,BR,1722873423
425,kitahiroshima,42.9758,141.5672,294.29,80,100,1.53,JP,1722873424
426,san ignacio,17.1561,-89.0714,300.23,83,75,2.06,BZ,1722873426
427,patan,27.6667,85.3333,297.36,94,75,1.03,NP,1722873427
428,wasagu,11.3764,5.7954,300.67,67,79,3.37,NG,1722873428
429,chernolesskoye,44.7156,43.7133,295.65,66,40,9.41,RU,1722873429
430,cuyo,10.8525,121.0086,301.53,73,100,2.26,PH,1722873432
431,hobyo,5.3505,48.5268,297.93,81,22,12.3,SO,1722873433
432,chul'man,56.8479,124.9104,285.22,98,100,2.84,RU,1722873434
433,tyukhtet,56.5389,89.3011,289.9,90,86,2.2,RU,1722873436
434,den burg,53.0542,4.7972,296.46,77,4,5.17,NL,1722873437
435,sao felix do xingu,-6.6447,-51.995,309.11,18,0,2.38,BR,1722873438
436,mahajanga,-15.7167,46.3167,297.16,69,0,1.54,MG,1722873441
437,salinas,36.6777,-121.6555,288.49,92,100,2.06,US,1722873442
438,lensk,60.7253,114.9278,288.44,74,76,1.21,RU,1722873443
439,meiganga,6.5167,14.3,296.32,87,100,1.03,CM,1722873444
440,chaiyaphum,15.75,102.0,298.32,87,100,2.87,TH,1722873446
441,nuevitas,21.5453,-77.2644,305.37,62,97,5.09,CU,1722873447
442,gosaba,22.165,88.7998,301.87,82,100,3.93,IN,1722873448
443,nowshahr,36.649,51.496,303.12,66,20,3.09,IR,1722873449
444,mokhsogollokh,61.4681,128.9203,286.92,92,100,3.73,RU,1722873451
445,cedeira,43.6797,-8.0209,297.03,82,0,3.85,ES,1722873452
446,sarajevo,43.8486,18.3564,302.1,32,40,2.57,BA,1722873453
447,salina cruz,16.1667,-95.2,303.8,58,100,2.04,MX,1722873454
448,yatou,37.15,122.3833,298.9,95,90,2.04,CN,1722873456
449,helena valley west central,46.6629,-112.0604,297.17,65,0,1.34,US,1722873457
450,maintirano,-18.0667,44.0167,296.75,71,6,4.16,MG,1722873458
451,saint-benoit,-21.038,55.7194,295.21,80,32,3.14,RE,1722873459
452,alofi,-19.0595,-169.9187,295.09,94,75,2.57,NU,1722873461
453,amargosa,-13.0303,-39.6047,295.63,79,73,5.07,BR,1722873462
454,san luis de la loma,17.2706,-100.8939,302.39,67,97,2.28,MX,1722873463
455,orchard homes,46.8633,-114.0484,291.23,77,75,1.54,US,1722873464
456,madang,-5.2246,145.7966,297.68,93,87,0.76,PG,1722873465
457,kuta,-8.7233,115.1723,299.12,83,20,4.12,ID,1722873467
458,idri,27.5,13.2667,315.3,7,0,4.19,LY,1722873468
459,puerto maldonado,-12.6,-69.1833,304.37,62,0,1.54,PE,1722873469
460,medzilaborce,49.2719,21.9007,288.77,96,100,3.5,SK,1722873471
461,gualeguay,-33.1416,-59.3097,290.77,75,99,5.02,AR,1722873472
462,balykchy,42.4557,76.1861,295.27,50,72,2.33,KG,1722873473
463,jabat,7.75,168.9751,301.37,77,100,3.41,MH,1722873474
464,vetluga,57.8557,45.781,291.25,89,100,1.99,RU,1722873476
465,mpika,-11.8343,31.4529,291.36,25,1,1.59,ZM,1722873477
466,gaiman,-43.2897,-65.4929,285.13,57,100,4.29,AR,1722873478
467,ola,59.5833,151.2833,285.04,88,100,1.24,RU,1722873479
468,sinjai,-5.1241,120.253,297.41,91,96,2.08,ID,1722873481
469,kitui,-1.367,38.0106,295.96,38,9,3.72,KE,1722873482
470,essaouira,31.5125,-9.77,294.58,87,2,6.97,MA,1722873483
471,estreito,-5.7833,-43.25,307.7,25,2,3.13,BR,1722873484
472,guerrero negro,27.9769,-114.0611,297.04,65,100,2.94,MX,1722873486
473,awjilah,29.1081,21.2869,312.22,13,0,4.17,LY,1722873487
474,krasnoslobodsk,48.7072,44.5714,295.05,94,75,7.0,RU,1722873488
475,saint-philippe,-21.3585,55.7679,294.92,77,58,2.74,RE,1722873489
476,ritchie,-29.038,24.6028,289.71,27,0,1.49,ZA,1722873491
477,hoemul-li,41.4339,129.67,296.35,98,98,0.78,KP,1722873492
478,hithadhoo,-0.6,73.0833,302.34,73,100,4.83,MV,1722873493
479,siwa oasis,29.2041,25.5195,311.79,15,2,3.6,EG,1722873494
480,morondava,-20.2833,44.2833,296.04,70,0,5.06,MG,1722873496
481,kununurra,-15.7667,128.7333,292.14,82,44,0.0,AU,1722873497
482,san rafael del yuma,18.4299,-68.6739,304.26,54,19,6.76,DO,1722873498
483,yuzhno-kurilsk,44.0306,145.8556,289.47,99,100,2.65,RU,1722873499
484,turtas,58.9417,69.1325,292.39,70,95,0.61,RU,1722873500
485,port-vila,-17.7338,168.3219,293.93,68,75,3.09,VU,1722873502
486,fallon,39.4735,-118.7774,302.65,38,6,3.55,US,1722873503
487,miracema do tocantins,-9.5618,-48.3967,307.82,19,0,3.17,BR,1722873504
488,makarov,48.6333,142.8,285.75,93,100,0.62,RU,1722873505
489,coari,-4.085,-63.1414,309.32,27,100,2.34,BR,1722873508
490,san agustin de valle fertil,-30.6335,-67.4682,292.03,25,5,4.69,AR,1722873509
491,momlingen,49.8597,9.0833,299.66,50,71,1.79,DE,1722873511
492,val-d'or,48.1002,-77.7828,292.2,48,75,3.6,CA,1722873242
493,san marcos,33.1434,-117.1661,304.67,67,100,0.89,US,1722873513
494,mirny,62.5353,113.9611,287.07,59,17,1.8,RU,1722873514
495,mozarlandia,-14.7447,-50.5706,307.23,18,0,3.91,BR,1722873516
496,holbrook,40.8123,-73.0784,304.96,58,20,2.68,US,1722873517
497,mili,6.0815,171.735,300.81,80,48,4.36,MH,1722873518
498,leer,53.2316,7.461,298.68,63,81,2.09,DE,1722873519
499,dingwall,57.5953,-4.4272,293.12,81,98,1.96,GB,1722873521
500,nkongsamba,4.9547,9.9404,294.5,94,99,1.14,CM,1722873522
501,songling,31.1933,120.7176,301.8,77,57,3.35,CN,1722873523
502,himatnagar,23.6,72.95,299.5,87,100,2.59,IN,1722873524
503,leh,34.1667,77.5833,290.08,54,79,4.27,IN,1722873526
504,vernon,50.2581,-119.2691,298.31,58,0,2.24,CA,1722873527
505,estevan,49.1334,-102.9842,288.26,77,100,5.14,CA,1722873528
506,verkhnevilyuysk,63.4453,120.3167,287.06,79,92,2.12,RU,1722873529
507,bucerias,20.75,-105.3333,304.81,75,78,0.92,MX,1722873392
508,la'ie,21.6477,-157.9253,298.4,85,99,2.68,US,1722873532
509,firuzabad,28.8438,52.5707,304.99,18,4,1.99,IR,1722873533
510,selfoss,63.9331,-20.9971,284.15,92,100,2.09,IS,1722873534
511,chimore,-16.9833,-65.1333,302.22,51,76,2.0,BO,1722873535
512,winnemucca,40.973,-117.7357,294.18,37,0,0.0,US,1722873537
513,lazaro cardenas,17.9583,-102.2,301.8,73,99,1.47,MX,1722873538
514,vorgashor,67.5833,63.95,284.33,60,8,4.01,RU,1722873539
515,flores,16.9226,-89.8994,303.52,62,98,1.26,GT,1722873440
516,dhidhdhoo,6.8833,73.1,301.09,77,98,3.73,MV,1722873543
517,surami,42.0243,43.5556,295.39,83,26,3.23,GE,1722873546
518,indramayu,-6.3264,108.32,299.39,74,34,4.76,ID,1722873547
519,san rafael,-34.6177,-68.3301,289.77,21,20,2.24,AR,1722873548
520,stephenville,32.2207,-98.2023,304.91,54,0,2.06,US,1722873549
521,kabala,9.5833,-11.55,297.97,90,100,2.57,SL,1722873550
522,an nuhud,12.7,28.4333,303.91,46,93,4.35,SD,1722873552
523,kalundborg,55.6795,11.0886,294.44,69,43,3.59,DK,1722873553
524,buarcos,40.166,-8.8768,304.39,80,3,6.95,PT,1722873554
525,pechory,57.8164,27.6119,294.85,85,61,1.3,RU,1722873555
526,kosh-agach,50.0,88.6667,282.93,78,52,2.09,RU,1722873557
527,mammoth lakes,37.6485,-118.9721,295.01,27,0,2.68,US,1722873559
528,zavodskoy,43.4597,132.2922,292.92,100,100,2.0,RU,1722873561
529,yomju-up,39.8933,124.5981,296.63,98,69,2.59,KP,1722873562
530,kutum,14.2,24.6667,297.49,64,85,5.89,SD,1722873563
531,pasni,25.2631,63.471,301.46,85,98,4.42,PK,1722873564
532,dudinka,69.4058,86.1778,282.94,62,1,8.44,RU,1722873566
533,torres,-29.3353,-49.7269,301.41,84,42,3.35,BR,1722873567
534,tucupita,9.0622,-62.051,301.47,85,82,1.15,VE,1722873278
535,gisborne,-38.6533,178.0042,279.24,83,98,2.88,NZ,1722873569
536,atherton,53.5237,-2.4935,296.75,76,98,3.13,GB,1722873571
537,el nido,11.1858,119.3956,298.23,92,96,3.88,PH,1722873572
538,barra de santo antonio,-9.4047,-35.5072,297.75,68,30,5.12,BR,1722873573
539,san pedro pochutla,15.7333,-96.4667,303.55,67,32,1.32,MX,1722873574
540,bikenibeu village,1.3673,173.1241,301.48,67,87,5.64,KI,1722873576
541,kyzyl-mazhalyk,51.1333,90.6,288.56,89,100,2.69,RU,1722873577
542,dali,25.7,100.1833,291.39,94,87,1.47,CN,1722873578
543,bamyan,34.75,67.25,288.61,28,0,3.87,AF,1722873579
544,lata,40.1629,-8.3327,303.42,43,0,5.34,PT,1722873580
545,swakopmund,-22.6833,14.5333,288.7,76,11,3.13,NA,1722873582
546,soata,6.3337,-72.6828,291.78,43,75,2.48,CO,1722873583
547,jiayuguan,39.8167,98.3,302.03,22,100,4.0,CN,1722873584
548,karachi,24.9056,67.0822,303.05,70,75,3.09,PK,1722873586
549,kyabe,9.4515,18.9449,299.3,81,100,0.82,TD,1722873587
550,puerto leguizamo,-0.1934,-74.7819,299.38,79,90,1.26,CO,1722873588
551,fort abbas,29.1925,72.8536,308.22,47,6,7.01,PK,1722873589
552,sokoni,-6.4333,39.55,301.07,74,28,6.4,TZ,1722873590
553,kapit,2.0167,112.9333,295.91,93,99,0.47,MY,1722873592
554,bathurst,-33.4166,149.5806,277.02,95,100,0.24,AU,1722873593
555,goondiwindi,-28.55,150.3167,285.8,96,100,1.38,AU,1722873594
556,shimoda,34.6667,138.95,299.87,84,88,1.41,JP,1722873595
557,luban,51.1201,15.2877,296.25,57,79,3.97,PL,1722873597
558,makubetsu,45.3714,141.8211,289.13,96,98,3.16,JP,1722873598
559,howard springs,-12.497,131.047,296.1,86,3,0.32,AU,1722873599
560,nouadhibou,20.931,-17.0347,298.14,73,3,7.2,MR,1722873600
561,taksimo,56.3444,114.8794,289.28,75,93,1.76,RU,1722873602
562,hoopstad,-27.8327,25.9083,284.67,29,0,2.94,ZA,1722873603
563,gaffney,35.0718,-81.6498,303.26,58,82,2.3,US,1722873604
564,kidal,18.4411,1.4078,303.63,53,66,7.78,ML,1722873606
565,saint-mandrier-sur-mer,43.078,5.929,303.58,66,0,3.6,FR,1722873607
566,ozernyy,55.5802,32.4127,292.5,85,91,1.39,RU,1722873608
567,yichang,30.7144,111.2847,302.42,80,97,0.85,CN,1722873609
568,mil'kovo,55.6078,37.7956,297.23,57,100,3.21,RU,1722873610
569,port augusta,-32.5,137.7667,281.17,81,6,1.74,AU,1722873612
570,xilin hot,43.9667,116.0333,294.11,43,79,3.1,CN,1722873613
571,keflavik,64.0049,-22.5624,288.1,94,100,4.63,IS,1722873616
572,el granada,37.5027,-122.4694,289.83,93,100,4.12,US,1722873617
